[
  {
    "idlocation": 28438,
    "id": 4651,
    "name": "Chez papie",
    "location": "3;Rue de la Lande Saint Pierre",
    "codepostal": "44400",
    "city": "Rezé",
    "department": "Loire-Atlantique",
    "country": "France",
    "latitude": 47.1729311766342,
    "longitude": -1.5415126765821787,
    "isDefault": 0,
    "isALive": 1,
    "dateLastUpdate": "2023-01-06 13:46:30"
  },
  {
    "idlocation": 26684,
    "id": 4651,
    "name": "Chez Moi",
    "location": "14;Rue de la Durantière",
    "codepostal": "44100",
    "city": "Nantes",
    "department": "Loire-Atlantique",
    "country": "France",
    "latitude": 47.21330568550793,
    "longitude": -1.5990529663533046,
    "isDefault": 0,
    "isALive": 1,
    "dateLastUpdate": "2023-01-06 13:46:30"
  },
  {
    "idlocation": 43742,
    "id": 4651,
    "name": "Chez mon frère",
    "location": "20;Rue des Buzardières",
    "codepostal": "44800",
    "city": "Saint-Herblain",
    "department": "Loire-Atlantique",
    "country": "France",
    "latitude": 47.20955799807423,
    "longitude": -1.6598486954076275,
    "isDefault": 0,
    "isALive": 1,
    "dateLastUpdate": "2023-01-06 13:46:30"
  },
  {
    "idlocation": 14183,
    "id": 4651,
    "name": "Chez papie",
    "location": "4;Rue de Villandry",
    "codepostal": "44840",
    "city": "Les Sorinières",
    "department": "Loire-Atlantique",
    "country": "France",
    "latitude": 47.15868376705243,
    "longitude": -1.5185219373380938,
    "isDefault": 0,
    "isALive": 1,
    "dateLastUpdate": "2023-01-06 13:46:30"
  },
  {
    "idlocation": 48214,
    "id": 3025,
    "name": "Chez mon frère",
    "location": "108;Rue de Nantes",
    "codepostal": "44830",
    "city": "Bouaye",
    "department": "Loire-Atlantique",
    "country": "France",
    "latitude": 47.14173247941147,
    "longitude": -1.6700604964914603,
    "isDefault": 0,
    "isALive": 1,
    "dateLastUpdate": "2023-01-06 13:46:30"
  },
  {
    "idlocation": 94303,
    "id": 3025,
    "name": "Chez mon frère",
    "location": "22;Allée des Passereaux",
    "codepostal": "44240",
    "city": "La Chapelle-sur-Erdre",
    "department": "Loire-Atlantique",
    "country": "France",
    "latitude": 47.2682079404431,
    "longitude": -1.547978321576103,
    "isDefault": 0,
    "isALive": 1,
    "dateLastUpdate": "2023-01-06 13:46:30"
  },
  {
    "idlocation": 61559,
    "id": 3025,
    "name": "Chez les parents",
    "location": "105;Route de Bouguenais",
    "codepostal": "44620",
    "city": "La Montagne",
    "department": "Loire-Atlantique",
    "country": "France",
    "latitude": 47.18552130991469,
    "longitude": -1.6809200706920702,
    "isDefault": 0,
    "isALive": 1,
    "dateLastUpdate": "2023-01-06 13:46:30"
  },
  {
    "idlocation": 46522,
    "id": 3025,
    "name": "Chez Moi",
    "location": "7;Rue des Sapins",
    "codepostal": "44880",
    "city": "Sautron",
    "department": "Loire-Atlantique",
    "country": "France",
    "latitude": 47.25951961402811,
    "longitude": -1.6684621292171498,
    "isDefault": 0,
    "isALive": 1,
    "dateLastUpdate": "2023-01-06 13:46:30"
  },
  {
    "idlocation": 64520,
    "id": 3025,
    "name": "Chez les parents",
    "location": "34;Hameau des Grézillières",
    "codepostal": "44230",
    "city": "Saint-Sébastien-sur-Loire",
    "department": "Loire-Atlantique",
    "country": "France",
    "latitude": 47.209148069421715,
    "longitude": -1.4825614665132636,
    "isDefault": 0,
    "isALive": 1,
    "dateLastUpdate": "2023-01-06 13:46:30"
  },
  {
    "idlocation": 13825,
    "id": 3025,
    "name": "Chez mon frère",
    "location": "15;Rue des Noisetiers",
    "codepostal": "44980",
    "city": "Sainte-Luce-sur-Loire",
    "department": "Loire-Atlantique",
    "country": "France",
    "latitude": 47.25242540527211,
    "longitude": -1.4957451582171475,
    "isDefault": 0,
    "isALive": 1,
    "dateLastUpdate": "2023-01-06 13:46:30"
  },
  {
    "idlocation": 85288,
    "id": 602,
    "name": "Entrepot",
    "location": "7;Rue des Primevères",
    "codepostal": "44100",
    "city": "Nantes",
    "department": "Loire-Atlantique",
    "country": "France",
    "latitude": 47.22830011538128,
    "longitude": -1.5845442403536183,
    "isDefault": 0,
    "isALive": 1,
    "dateLastUpdate": "2023-01-06 13:46:30"
  },
  {
    "idlocation": 67610,
    "id": 602,
    "name": "Chez mamie",
    "location": "4;Impasse de la Planche Brondet",
    "codepostal": "44400",
    "city": "Rezé",
    "department": "Loire-Atlantique",
    "country": "France",
    "latitude": 47.15794498537911,
    "longitude": -1.5313240481001391,
    "isDefault": 0,
    "isALive": 1,
    "dateLastUpdate": "2023-01-06 13:46:30"
  },
  {
    "idlocation": 43976,
    "id": 602,
    "name": "Chez Moi",
    "location": "5;Bis Rue Général Buat",
    "codepostal": "44000",
    "city": "Nantes",
    "department": "Loire-Atlantique",
    "country": "France",
    "latitude": 47.233316150375494,
    "longitude": -1.5362214211844212,
    "isDefault": 0,
    "isALive": 1,
    "dateLastUpdate": "2023-01-06 13:46:30"
  },
  {
    "idlocation": 79016,
    "id": 2433,
    "name": "Chez mamie",
    "location": "10;Rue de la Briande",
    "codepostal": "44230",
    "city": "Saint-Sébastien-sur-Loire",
    "department": "Loire-Atlantique",
    "country": "France",
    "latitude": 47.20694823713343,
    "longitude": -1.4954530329977298,
    "isDefault": 0,
    "isALive": 1,
    "dateLastUpdate": "2023-01-06 13:46:30"
  },
  {
    "idlocation": 70516,
    "id": 2433,
    "name": "Chez les parents",
    "location": "7;Allée de l'Angebardière",
    "codepostal": "44120",
    "city": "Vertou",
    "department": "Loire-Atlantique",
    "country": "France",
    "latitude": 47.17014355252943,
    "longitude": -1.505301804382397,
    "isDefault": 0,
    "isALive": 1,
    "dateLastUpdate": "2023-01-06 13:46:30"
  },
  {
    "idlocation": 83735,
    "id": 2433,
    "name": "Chez les parents",
    "location": "20;Rue d'Alsace",
    "codepostal": "44000",
    "city": "Nantes",
    "department": "Loire-Atlantique",
    "country": "France",
    "latitude": 47.23386862627781,
    "longitude": -1.5471466303927255,
    "isDefault": 0,
    "isALive": 1,
    "dateLastUpdate": "2023-01-06 13:46:30"
  },
  {
    "idlocation": 9950,
    "id": 3247,
    "name": "Chez Moi",
    "location": "122;Route de la Fontenelle",
    "codepostal": "44120",
    "city": "Vertou",
    "department": "Loire-Atlantique",
    "country": "France",
    "latitude": 47.18732424708855,
    "longitude": -1.5021435240957697,
    "isDefault": 0,
    "isALive": 1,
    "dateLastUpdate": "2023-01-06 13:46:30"
  },
  {
    "idlocation": 11360,
    "id": 3247,
    "name": "Chez Moi",
    "location": "19;Rue de Pornic",
    "codepostal": "44710",
    "city": "Saint-Léger-les-Vignes",
    "department": "Loire-Atlantique",
    "country": "France",
    "latitude": 47.13568575489559,
    "longitude": -1.7356176478190575,
    "isDefault": 0,
    "isALive": 1,
    "dateLastUpdate": "2023-01-06 13:46:30"
  },
  {
    "idlocation": 66220,
    "id": 3247,
    "name": "Chez ma sœur",
    "location": "33;Rue Henri Gautier",
    "codepostal": "44220",
    "city": "Couëron",
    "department": "Loire-Atlantique",
    "country": "France",
    "latitude": 47.21427793448003,
    "longitude": -1.729219453473716,
    "isDefault": 0,
    "isALive": 1,
    "dateLastUpdate": "2023-01-06 13:46:30"
  },
  {
    "idlocation": 63237,
    "id": 3827,
    "name": "Entrepot",
    "location": "11;Rue Egault",
    "codepostal": "44800",
    "city": "Saint-Herblain",
    "department": "Loire-Atlantique",
    "country": "France",
    "latitude": 47.21531689760305,
    "longitude": -1.6544643448354635,
    "isDefault": 0,
    "isALive": 1,
    "dateLastUpdate": "2023-01-06 13:46:30"
  },
  {
    "idlocation": 29363,
    "id": 3827,
    "name": "Entrepot",
    "location": "14;Rue des Chalonges",
    "codepostal": "44470",
    "city": "Thouaré-sur-Loire",
    "department": "Loire-Atlantique",
    "country": "France",
    "latitude": 47.275992566579525,
    "longitude": -1.4290822026687533,
    "isDefault": 0,
    "isALive": 1,
    "dateLastUpdate": "2023-01-06 13:46:30"
  },
  {
    "idlocation": 77937,
    "id": 3827,
    "name": "Chez les parents",
    "location": "119;Rue de la Basse Ile",
    "codepostal": "44400",
    "city": "Rezé",
    "department": "Loire-Atlantique",
    "country": "France",
    "latitude": 47.195973861632496,
    "longitude": -1.5705420300216066,
    "isDefault": 0,
    "isALive": 1,
    "dateLastUpdate": "2023-01-06 13:46:30"
  },
  {
    "idlocation": 87573,
    "id": 2789,
    "name": "Chez Moi",
    "location": "31;Bis Boulevard de l'Egalité",
    "codepostal": "44100",
    "city": "Nantes",
    "department": "Loire-Atlantique",
    "country": "France",
    "latitude": 47.20839670927423,
    "longitude": -1.5874234109767056,
    "isDefault": 0,
    "isALive": 1,
    "dateLastUpdate": "2023-01-06 13:46:30"
  },
  {
    "idlocation": 91531,
    "id": 2789,
    "name": "Entrepot",
    "location": "10;Rue de Quimper",
    "codepostal": "44800",
    "city": "Saint-Herblain",
    "department": "Loire-Atlantique",
    "country": "France",
    "latitude": 47.215643915665666,
    "longitude": -1.6173334587478347,
    "isDefault": 0,
    "isALive": 1,
    "dateLastUpdate": "2023-01-06 13:46:30"
  },
  {
    "idlocation": 35269,
    "id": 2789,
    "name": "Chez ma sœur",
    "location": "60;Avenue Albert Camus",
    "codepostal": "44800",
    "city": "Saint-Herblain",
    "department": "Loire-Atlantique",
    "country": "France",
    "latitude": 47.20556166219484,
    "longitude": -1.6623783628571152,
    "isDefault": 0,
    "isALive": 1,
    "dateLastUpdate": "2023-01-06 13:46:30"
  },
  {
    "idlocation": 33066,
    "id": 2648,
    "name": "Chez ma sœur",
    "location": "3;Chemin de l'Angle Chaillou",
    "codepostal": "44300",
    "city": "Nantes",
    "department": "Loire-Atlantique",
    "country": "France",
    "latitude": 47.26983764828982,
    "longitude": -1.5716148132543284,
    "isDefault": 0,
    "isALive": 1,
    "dateLastUpdate": "2023-01-06 13:46:30"
  },
  {
    "idlocation": 68153,
    "id": 2648,
    "name": "Chez papie",
    "location": "1;Rue des Jonquilles",
    "codepostal": "44830",
    "city": "Brains",
    "department": "Loire-Atlantique",
    "country": "France",
    "latitude": 47.167054072036976,
    "longitude": -1.7250823436541403,
    "isDefault": 0,
    "isALive": 1,
    "dateLastUpdate": "2023-01-06 13:46:30"
  },
  {
    "idlocation": 31187,
    "id": 201,
    "name": "Chez les parents",
    "location": "22;Rue des Quinze Sillons",
    "codepostal": "44230",
    "city": "Saint-Sébastien-sur-Loire",
    "department": "Loire-Atlantique",
    "country": "France",
    "latitude": 47.194159515386296,
    "longitude": -1.4798021270323904,
    "isDefault": 0,
    "isALive": 1,
    "dateLastUpdate": "2023-01-06 13:46:30"
  },
  {
    "idlocation": 72004,
    "id": 201,
    "name": "Chez Moi",
    "location": "12;Rue des Chapelles",
    "codepostal": "44400",
    "city": "Rezé",
    "department": "Loire-Atlantique",
    "country": "France",
    "latitude": 47.16244538707862,
    "longitude": -1.5379886536805059,
    "isDefault": 0,
    "isALive": 1,
    "dateLastUpdate": "2023-01-06 13:46:30"
  },
  {
    "idlocation": 32516,
    "id": 201,
    "name": "Entrepot",
    "location": "2;Avenue Caravelle",
    "codepostal": "44340",
    "city": "Bouguenais",
    "department": "Loire-Atlantique",
    "country": "France",
    "latitude": 47.17797031544395,
    "longitude": -1.6164386640113886,
    "isDefault": 0,
    "isALive": 1,
    "dateLastUpdate": "2023-01-06 13:46:30"
  },
  {
    "idlocation": 69453,
    "id": 201,
    "name": "Chez Moi",
    "location": "8;Rue du Côteau",
    "codepostal": "44880",
    "city": "Sautron",
    "department": "Loire-Atlantique",
    "country": "France",
    "latitude": 47.26410016663127,
    "longitude": -1.665688289177589,
    "isDefault": 0,
    "isALive": 1,
    "dateLastUpdate": "2023-01-06 13:46:30"
  },
  {
    "idlocation": 67624,
    "id": 201,
    "name": "Chez ma sœur",
    "location": "4;Bis Rue des Treilles",
    "codepostal": "44830",
    "city": "Bouaye",
    "department": "Loire-Atlantique",
    "country": "France",
    "latitude": 47.145740895282,
    "longitude": -1.6980852149344066,
    "isDefault": 0,
    "isALive": 1,
    "dateLastUpdate": "2023-01-06 13:46:30"
  },
  {
    "idlocation": 76710,
    "id": 201,
    "name": "Entrepot",
    "location": "149;Bis Rue de la Gilarderie",
    "codepostal": "44200",
    "city": "Nantes",
    "department": "Loire-Atlantique",
    "country": "France",
    "latitude": 47.18755571000231,
    "longitude": -1.5181348482964634,
    "isDefault": 0,
    "isALive": 1,
    "dateLastUpdate": "2023-01-06 13:46:30"
  },
  {
    "idlocation": 55708,
    "id": 201,
    "name": "Chez mon frère",
    "location": "9;Rue Docteur Jean Rostand",
    "codepostal": "44800",
    "city": "Saint-Herblain",
    "department": "Loire-Atlantique",
    "country": "France",
    "latitude": 47.232685004021235,
    "longitude": -1.6313954015366376,
    "isDefault": 0,
    "isALive": 1,
    "dateLastUpdate": "2023-01-06 13:46:30"
  },
  {
    "idlocation": 47222,
    "id": 1417,
    "name": "Chez mon frère",
    "location": "10;Rue de la Dordogne",
    "codepostal": "44100",
    "city": "Nantes",
    "department": "Loire-Atlantique",
    "country": "France",
    "latitude": 47.20900214985732,
    "longitude": -1.6029008252200327,
    "isDefault": 0,
    "isALive": 1,
    "dateLastUpdate": "2023-01-06 13:46:30"
  },
  {
    "idlocation": 57356,
    "id": 1417,
    "name": "Chez mon frère",
    "location": "28;Rue de l'Etang",
    "codepostal": "44340",
    "city": "Bouguenais",
    "department": "Loire-Atlantique",
    "country": "France",
    "latitude": 47.18711308165231,
    "longitude": -1.6671725278759726,
    "isDefault": 0,
    "isALive": 1,
    "dateLastUpdate": "2023-01-06 13:46:30"
  },
  {
    "idlocation": 9921,
    "id": 1417,
    "name": "Chez les parents",
    "location": "6;Cours Olivier De Clisson",
    "codepostal": "44000",
    "city": "Nantes",
    "department": "Loire-Atlantique",
    "country": "France",
    "latitude": 47.21308844180835,
    "longitude": -1.5547223217106425,
    "isDefault": 0,
    "isALive": 1,
    "dateLastUpdate": "2023-01-06 13:46:30"
  },
  {
    "idlocation": 32541,
    "id": 1417,
    "name": "Chez mon frère",
    "location": "10;Avenue du Cristal",
    "codepostal": "44300",
    "city": "Nantes",
    "department": "Loire-Atlantique",
    "country": "France",
    "latitude": 47.254132956250864,
    "longitude": -1.535818064662168,
    "isDefault": 0,
    "isALive": 1,
    "dateLastUpdate": "2023-01-06 13:46:30"
  },
  {
    "idlocation": 44556,
    "id": 3322,
    "name": "Entrepot",
    "location": "39;Rue des Bois",
    "codepostal": "44230",
    "city": "Saint-Sébastien-sur-Loire",
    "department": "Loire-Atlantique",
    "country": "France",
    "latitude": 47.192520402822325,
    "longitude": -1.513832077645673,
    "isDefault": 0,
    "isALive": 1,
    "dateLastUpdate": "2023-01-06 13:46:30"
  },
  {
    "idlocation": 31364,
    "id": 3322,
    "name": "Chez les parents",
    "location": "4;Impasse de la Trêperie",
    "codepostal": "44115",
    "city": "Basse-Goulaine",
    "department": "Loire-Atlantique",
    "country": "France",
    "latitude": 47.21454676037835,
    "longitude": -1.4629293354428536,
    "isDefault": 0,
    "isALive": 1,
    "dateLastUpdate": "2023-01-06 13:46:30"
  },
  {
    "idlocation": 83254,
    "id": 3322,
    "name": "Chez mon frère",
    "location": "124;Bis Rue des Drouards",
    "codepostal": "44340",
    "city": "Bouguenais",
    "department": "Loire-Atlantique",
    "country": "France",
    "latitude": 47.15710155879149,
    "longitude": -1.5678601597148194,
    "isDefault": 0,
    "isALive": 1,
    "dateLastUpdate": "2023-01-06 13:46:30"
  },
  {
    "idlocation": 24362,
    "id": 3322,
    "name": "Chez mon frère",
    "location": "17;Rue de Bruxelles",
    "codepostal": "44980",
    "city": "Sainte-Luce-sur-Loire",
    "department": "Loire-Atlantique",
    "country": "France",
    "latitude": 47.25620200846513,
    "longitude": -1.4752289211412324,
    "isDefault": 0,
    "isALive": 1,
    "dateLastUpdate": "2023-01-06 13:46:30"
  },
  {
    "idlocation": 26146,
    "id": 3322,
    "name": "Chez mamie",
    "location": "2;Rue de la Pomme d'Or",
    "codepostal": "44830",
    "city": "Bouaye",
    "department": "Loire-Atlantique",
    "country": "France",
    "latitude": 47.157196229622585,
    "longitude": -1.6883603067508846,
    "isDefault": 0,
    "isALive": 1,
    "dateLastUpdate": "2023-01-06 13:46:30"
  },
  {
    "idlocation": 25040,
    "id": 847,
    "name": "Chez les parents",
    "location": "54;Rue de Galheur",
    "codepostal": "44340",
    "city": "Bouguenais",
    "department": "Loire-Atlantique",
    "country": "France",
    "latitude": 47.16249704355565,
    "longitude": -1.5766167055289773,
    "isDefault": 0,
    "isALive": 1,
    "dateLastUpdate": "2023-01-06 13:46:30"
  },
  {
    "idlocation": 49483,
    "id": 847,
    "name": "Chez mon frère",
    "location": "5;Rue Boris Vian",
    "codepostal": "44830",
    "city": "Bouaye",
    "department": "Loire-Atlantique",
    "country": "France",
    "latitude": 47.15199533445602,
    "longitude": -1.684509927852904,
    "isDefault": 0,
    "isALive": 1,
    "dateLastUpdate": "2023-01-06 13:46:30"
  },
  {
    "idlocation": 12431,
    "id": 847,
    "name": "Chez papie",
    "location": "21;Rue Edouard Hervé",
    "codepostal": "44230",
    "city": "Saint-Sébastien-sur-Loire",
    "department": "Loire-Atlantique",
    "country": "France",
    "latitude": 47.191628591288435,
    "longitude": -1.5191021204723785,
    "isDefault": 0,
    "isALive": 1,
    "dateLastUpdate": "2023-01-06 13:46:30"
  },
  {
    "idlocation": 22880,
    "id": 847,
    "name": "Entrepot",
    "location": "2;Bis Rue Marcel de la Provoté",
    "codepostal": "44220",
    "city": "Couëron",
    "department": "Loire-Atlantique",
    "country": "France",
    "latitude": 47.21129480387951,
    "longitude": -1.7320865557105254,
    "isDefault": 0,
    "isALive": 1,
    "dateLastUpdate": "2023-01-06 13:46:30"
  },
  {
    "idlocation": 49334,
    "id": 2230,
    "name": "Chez mamie",
    "location": "151;Bis Route de Sainte Luce",
    "codepostal": "44300",
    "city": "Nantes",
    "department": "Loire-Atlantique",
    "country": "France",
    "latitude": 47.23636914544386,
    "longitude": -1.5183925608767663,
    "isDefault": 0,
    "isALive": 1,
    "dateLastUpdate": "2023-01-06 13:46:30"
  },
  {
    "idlocation": 69616,
    "id": 3008,
    "name": "Entrepot",
    "location": "6;Rue des Lilas",
    "codepostal": "44980",
    "city": "Sainte-Luce-sur-Loire",
    "department": "Loire-Atlantique",
    "country": "France",
    "latitude": 47.25323643827934,
    "longitude": -1.4838202027933447,
    "isDefault": 0,
    "isALive": 1,
    "dateLastUpdate": "2023-01-06 13:46:30"
  },
  {
    "idlocation": 39891,
    "id": 3008,
    "name": "Chez les parents",
    "location": "5;Rue Lazare Hoche",
    "codepostal": "44400",
    "city": "Rezé",
    "department": "Loire-Atlantique",
    "country": "France",
    "latitude": 47.17515837593647,
    "longitude": -1.5385425082470245,
    "isDefault": 0,
    "isALive": 1,
    "dateLastUpdate": "2023-01-06 13:46:30"
  },
  {
    "idlocation": 27230,
    "id": 3008,
    "name": "Chez mon frère",
    "location": "12;Rue des Genêts",
    "codepostal": "44840",
    "city": "Les Sorinières",
    "department": "Loire-Atlantique",
    "country": "France",
    "latitude": 47.14154196314303,
    "longitude": -1.5311393933614108,
    "isDefault": 0,
    "isALive": 1,
    "dateLastUpdate": "2023-01-06 13:46:30"
  },
  {
    "idlocation": 96845,
    "id": 3529,
    "name": "Chez mon frère",
    "location": "4;Rue de la Saône",
    "codepostal": "44230",
    "city": "Saint-Sébastien-sur-Loire",
    "department": "Loire-Atlantique",
    "country": "France",
    "latitude": 47.20157137496939,
    "longitude": -1.5169598834093352,
    "isDefault": 0,
    "isALive": 1,
    "dateLastUpdate": "2023-01-06 13:46:30"
  },
  {
    "idlocation": 42561,
    "id": 3529,
    "name": "Chez papie",
    "location": "3;Impasse Montéverdi",
    "codepostal": "44470",
    "city": "Thouaré-sur-Loire",
    "department": "Loire-Atlantique",
    "country": "France",
    "latitude": 47.266691224685395,
    "longitude": -1.4455108688876808,
    "isDefault": 0,
    "isALive": 1,
    "dateLastUpdate": "2023-01-06 13:46:30"
  },
  {
    "idlocation": 23210,
    "id": 3529,
    "name": "Chez papie",
    "location": "58;Route de la Roderie",
    "codepostal": "44830",
    "city": "Bouaye",
    "department": "Loire-Atlantique",
    "country": "France",
    "latitude": 47.147479881707326,
    "longitude": -1.6685696643836025,
    "isDefault": 0,
    "isALive": 1,
    "dateLastUpdate": "2023-01-06 13:46:30"
  },
  {
    "idlocation": 84971,
    "id": 4413,
    "name": "Chez mamie",
    "location": "4;Avenue du Printemps",
    "codepostal": "44100",
    "city": "Nantes",
    "department": "Loire-Atlantique",
    "country": "France",
    "latitude": 47.20823904946055,
    "longitude": -1.592603472344828,
    "isDefault": 0,
    "isALive": 1,
    "dateLastUpdate": "2023-01-06 13:46:30"
  },
  {
    "idlocation": 34574,
    "id": 4413,
    "name": "Chez ma sœur",
    "location": "12;Rue des Pensées",
    "codepostal": "44230",
    "city": "Saint-Sébastien-sur-Loire",
    "department": "Loire-Atlantique",
    "country": "France",
    "latitude": 47.19563492510957,
    "longitude": -1.5163641855924632,
    "isDefault": 0,
    "isALive": 1,
    "dateLastUpdate": "2023-01-06 13:46:30"
  },
  {
    "idlocation": 8507,
    "id": 622,
    "name": "Entrepot",
    "location": "37;Bis Rue des Plantes",
    "codepostal": "44100",
    "city": "Nantes",
    "department": "Loire-Atlantique",
    "country": "France",
    "latitude": 47.233054135753115,
    "longitude": -1.5861335783050687,
    "isDefault": 0,
    "isALive": 1,
    "dateLastUpdate": "2023-01-06 13:46:30"
  },
  {
    "idlocation": 46717,
    "id": 622,
    "name": "Chez ma sœur",
    "location": "1;Rue du Quatre Septembre",
    "codepostal": "44100",
    "city": "Nantes",
    "department": "Loire-Atlantique",
    "country": "France",
    "latitude": 47.20619373013785,
    "longitude": -1.590909707593238,
    "isDefault": 0,
    "isALive": 1,
    "dateLastUpdate": "2023-01-06 13:46:30"
  },
  {
    "idlocation": 6703,
    "id": 622,
    "name": "Entrepot",
    "location": "3;Rue des Daudières",
    "codepostal": "44220",
    "city": "Couëron",
    "department": "Loire-Atlantique",
    "country": "France",
    "latitude": 47.22289924597778,
    "longitude": -1.723042488889753,
    "isDefault": 0,
    "isALive": 1,
    "dateLastUpdate": "2023-01-06 13:46:30"
  },
  {
    "idlocation": 65932,
    "id": 622,
    "name": "Entrepot",
    "location": "18;Bis Voie Communale",
    "codepostal": "44120",
    "city": "Vertou",
    "department": "Loire-Atlantique",
    "country": "France",
    "latitude": 47.15483145270509,
    "longitude": -1.5057422897679054,
    "isDefault": 0,
    "isALive": 1,
    "dateLastUpdate": "2023-01-06 13:46:30"
  },
  {
    "idlocation": 95743,
    "id": 622,
    "name": "Chez ma sœur",
    "location": "28;Avenue du Ponant",
    "codepostal": "44300",
    "city": "Nantes",
    "department": "Loire-Atlantique",
    "country": "France",
    "latitude": 47.24419734906647,
    "longitude": -1.5024495977091186,
    "isDefault": 0,
    "isALive": 1,
    "dateLastUpdate": "2023-01-06 13:46:30"
  },
  {
    "idlocation": 19565,
    "id": 3535,
    "name": "Chez Moi",
    "location": "52;Rue Villebois Mareuil",
    "codepostal": "44000",
    "city": "Nantes",
    "department": "Loire-Atlantique",
    "country": "France",
    "latitude": 47.22836821404803,
    "longitude": -1.5652940299729443,
    "isDefault": 0,
    "isALive": 1,
    "dateLastUpdate": "2023-01-06 13:46:30"
  },
  {
    "idlocation": 28583,
    "id": 3184,
    "name": "Chez mon frère",
    "location": "14;Bis Rue de la Guérauderie",
    "codepostal": "44840",
    "city": "Les Sorinières",
    "department": "Loire-Atlantique",
    "country": "France",
    "latitude": 47.145526144800805,
    "longitude": -1.4985280053360104,
    "isDefault": 0,
    "isALive": 1,
    "dateLastUpdate": "2023-01-06 13:46:30"
  },
  {
    "idlocation": 51146,
    "id": 3184,
    "name": "Chez mon frère",
    "location": "14;Chemin des Hiorts",
    "codepostal": "44100",
    "city": "Nantes",
    "department": "Loire-Atlantique",
    "country": "France",
    "latitude": 47.19582173413732,
    "longitude": -1.6165669599455803,
    "isDefault": 0,
    "isALive": 1,
    "dateLastUpdate": "2023-01-06 13:46:30"
  },
  {
    "idlocation": 44302,
    "id": 3184,
    "name": "Chez mon frère",
    "location": "25;Rue Walt Disney",
    "codepostal": "44800",
    "city": "Saint-Herblain",
    "department": "Loire-Atlantique",
    "country": "France",
    "latitude": 47.21163896745186,
    "longitude": -1.6481034416733702,
    "isDefault": 0,
    "isALive": 1,
    "dateLastUpdate": "2023-01-06 13:46:30"
  },
  {
    "idlocation": 19917,
    "id": 3184,
    "name": "Chez mamie",
    "location": "11;Rue Jean Rouxel",
    "codepostal": "44700",
    "city": "Orvault",
    "department": "Loire-Atlantique",
    "country": "France",
    "latitude": 47.262744572015016,
    "longitude": -1.6499895876047221,
    "isDefault": 0,
    "isALive": 1,
    "dateLastUpdate": "2023-01-06 13:46:30"
  },
  {
    "idlocation": 3612,
    "id": 3184,
    "name": "Chez Moi",
    "location": "6;Rue Aristide Hignard",
    "codepostal": "44000",
    "city": "Nantes",
    "department": "Loire-Atlantique",
    "country": "France",
    "latitude": 47.22325480741056,
    "longitude": -1.5226925706641543,
    "isDefault": 0,
    "isALive": 1,
    "dateLastUpdate": "2023-01-06 13:46:30"
  },
  {
    "idlocation": 68318,
    "id": 3184,
    "name": "Entrepot",
    "location": "16;Avenue des Amaryllis",
    "codepostal": "44300",
    "city": "Nantes",
    "department": "Loire-Atlantique",
    "country": "France",
    "latitude": 47.24865239208916,
    "longitude": -1.5291661627698858,
    "isDefault": 0,
    "isALive": 1,
    "dateLastUpdate": "2023-01-06 13:46:30"
  },
  {
    "idlocation": 15451,
    "id": 4177,
    "name": "Entrepot",
    "location": "49;Rue du Port des Charrettes",
    "codepostal": "44300",
    "city": "Nantes",
    "department": "Loire-Atlantique",
    "country": "France",
    "latitude": 47.267267616823354,
    "longitude": -1.5270201428062464,
    "isDefault": 0,
    "isALive": 1,
    "dateLastUpdate": "2023-01-06 13:46:30"
  },
  {
    "idlocation": 75152,
    "id": 4177,
    "name": "Chez Moi",
    "location": "118;Rue de la Mirette",
    "codepostal": "44400",
    "city": "Rezé",
    "department": "Loire-Atlantique",
    "country": "France",
    "latitude": 47.16453445227095,
    "longitude": -1.535829850512068,
    "isDefault": 0,
    "isALive": 1,
    "dateLastUpdate": "2023-01-06 13:46:30"
  },
  {
    "idlocation": 31328,
    "id": 4177,
    "name": "Entrepot",
    "location": "30;Rue Mercator",
    "codepostal": "44700",
    "city": "Orvault",
    "department": "Loire-Atlantique",
    "country": "France",
    "latitude": 47.25943813004466,
    "longitude": -1.6336485800136478,
    "isDefault": 0,
    "isALive": 1,
    "dateLastUpdate": "2023-01-06 13:46:30"
  },
  {
    "idlocation": 36745,
    "id": 4177,
    "name": "Chez mon frère",
    "location": "41;Rue Arsène Leloup",
    "codepostal": "44220",
    "city": "Couëron",
    "department": "Loire-Atlantique",
    "country": "France",
    "latitude": 47.21239399732575,
    "longitude": -1.7331155771118998,
    "isDefault": 0,
    "isALive": 1,
    "dateLastUpdate": "2023-01-06 13:46:30"
  },
  {
    "idlocation": 84531,
    "id": 4177,
    "name": "Chez papie",
    "location": "16;Rue de la Quératière",
    "codepostal": "44400",
    "city": "Rezé",
    "department": "Loire-Atlantique",
    "country": "France",
    "latitude": 47.16429031005244,
    "longitude": -1.5394539815063522,
    "isDefault": 0,
    "isALive": 1,
    "dateLastUpdate": "2023-01-06 13:46:30"
  },
  {
    "idlocation": 89340,
    "id": 4177,
    "name": "Chez ma sœur",
    "location": "77;Rue des Tulipes",
    "codepostal": "44120",
    "city": "Vertou",
    "department": "Loire-Atlantique",
    "country": "France",
    "latitude": 47.17597021036492,
    "longitude": -1.4820598562845846,
    "isDefault": 0,
    "isALive": 1,
    "dateLastUpdate": "2023-01-06 13:46:30"
  },
  {
    "idlocation": 98371,
    "id": 4809,
    "name": "Chez ma sœur",
    "location": "2;Rue du Nil",
    "codepostal": "44800",
    "city": "Saint-Herblain",
    "department": "Loire-Atlantique",
    "country": "France",
    "latitude": 47.24135857811665,
    "longitude": -1.607544530019123,
    "isDefault": 0,
    "isALive": 1,
    "dateLastUpdate": "2023-01-06 13:46:30"
  },
  {
    "idlocation": 25731,
    "id": 4809,
    "name": "Chez papie",
    "location": "9;Chemin du Port",
    "codepostal": "44300",
    "city": "Nantes",
    "department": "Loire-Atlantique",
    "country": "France",
    "latitude": 47.23899598583642,
    "longitude": -1.546646040862162,
    "isDefault": 0,
    "isALive": 1,
    "dateLastUpdate": "2023-01-06 13:46:30"
  },
  {
    "idlocation": 29708,
    "id": 4809,
    "name": "Chez ma sœur",
    "location": "11;Voie Non Dénommée",
    "codepostal": "44880",
    "city": "Sautron",
    "department": "Loire-Atlantique",
    "country": "France",
    "latitude": 47.27528666335989,
    "longitude": -1.6799807771275368,
    "isDefault": 0,
    "isALive": 1,
    "dateLastUpdate": "2023-01-06 13:46:30"
  },
  {
    "idlocation": 89018,
    "id": 4809,
    "name": "Chez ma sœur",
    "location": "36;Rue Augustin Mouillé",
    "codepostal": "44400",
    "city": "Rezé",
    "department": "Loire-Atlantique",
    "country": "France",
    "latitude": 47.17692656597765,
    "longitude": -1.5460967234709178,
    "isDefault": 0,
    "isALive": 1,
    "dateLastUpdate": "2023-01-06 13:46:30"
  },
  {
    "idlocation": 7400,
    "id": 4809,
    "name": "Chez ma sœur",
    "location": "6;Rue des Bateliers",
    "codepostal": "44120",
    "city": "Vertou",
    "department": "Loire-Atlantique",
    "country": "France",
    "latitude": 47.16750807937116,
    "longitude": -1.4962335568589682,
    "isDefault": 0,
    "isALive": 1,
    "dateLastUpdate": "2023-01-06 13:46:30"
  },
  {
    "idlocation": 70416,
    "id": 2776,
    "name": "Chez mamie",
    "location": "40;Rue Louis Gaudin",
    "codepostal": "44980",
    "city": "Sainte-Luce-sur-Loire",
    "department": "Loire-Atlantique",
    "country": "France",
    "latitude": 47.252233866291554,
    "longitude": -1.4873423711311897,
    "isDefault": 0,
    "isALive": 1,
    "dateLastUpdate": "2023-01-06 13:46:30"
  },
  {
    "idlocation": 74513,
    "id": 2776,
    "name": "Entrepot",
    "location": "71;Avenue de la Praudière",
    "codepostal": "44700",
    "city": "Orvault",
    "department": "Loire-Atlantique",
    "country": "France",
    "latitude": 47.25341536089249,
    "longitude": -1.5844398522025132,
    "isDefault": 0,
    "isALive": 1,
    "dateLastUpdate": "2023-01-06 13:46:30"
  },
  {
    "idlocation": 17773,
    "id": 2776,
    "name": "Chez mon frère",
    "location": "40;Route du Mortier Vannerie",
    "codepostal": "44120",
    "city": "Vertou",
    "department": "Loire-Atlantique",
    "country": "France",
    "latitude": 47.18452454583849,
    "longitude": -1.4965413572240673,
    "isDefault": 0,
    "isALive": 1,
    "dateLastUpdate": "2023-01-06 13:46:30"
  },
  {
    "idlocation": 27025,
    "id": 565,
    "name": "Chez mamie",
    "location": "59;Rue Joseph Blanchart",
    "codepostal": "44100",
    "city": "Nantes",
    "department": "Loire-Atlantique",
    "country": "France",
    "latitude": 47.20613706871209,
    "longitude": -1.5765109850503751,
    "isDefault": 0,
    "isALive": 1,
    "dateLastUpdate": "2023-01-06 13:46:30"
  },
  {
    "idlocation": 21063,
    "id": 565,
    "name": "Chez ma sœur",
    "location": "5;Place du Géraudeau",
    "codepostal": "44700",
    "city": "Orvault",
    "department": "Loire-Atlantique",
    "country": "France",
    "latitude": 47.25626091585552,
    "longitude": -1.6101546912179785,
    "isDefault": 0,
    "isALive": 1,
    "dateLastUpdate": "2023-01-06 13:46:30"
  },
  {
    "idlocation": 87339,
    "id": 565,
    "name": "Chez les parents",
    "location": "50;Rue des Papillons",
    "codepostal": "44840",
    "city": "Les Sorinières",
    "department": "Loire-Atlantique",
    "country": "France",
    "latitude": 47.1466373102284,
    "longitude": -1.519051241432226,
    "isDefault": 0,
    "isALive": 1,
    "dateLastUpdate": "2023-01-06 13:46:30"
  },
  {
    "idlocation": 56188,
    "id": 565,
    "name": "Chez les parents",
    "location": "14;Rue Julien Marchais",
    "codepostal": "44400",
    "city": "Rezé",
    "department": "Loire-Atlantique",
    "country": "France",
    "latitude": 47.19046033135895,
    "longitude": -1.5492389021445514,
    "isDefault": 0,
    "isALive": 1,
    "dateLastUpdate": "2023-01-06 13:46:30"
  },
  {
    "idlocation": 68578,
    "id": 565,
    "name": "Chez ma sœur",
    "location": "23;Rue du Clos Amis",
    "codepostal": "44800",
    "city": "Saint-Herblain",
    "department": "Loire-Atlantique",
    "country": "France",
    "latitude": 47.21169643921457,
    "longitude": -1.6572269516679807,
    "isDefault": 0,
    "isALive": 1,
    "dateLastUpdate": "2023-01-06 13:46:30"
  },
  {
    "idlocation": 37897,
    "id": 565,
    "name": "Chez ma sœur",
    "location": "1;Chemin des Bazins",
    "codepostal": "44340",
    "city": "Bouguenais",
    "department": "Loire-Atlantique",
    "country": "France",
    "latitude": 47.17319340557641,
    "longitude": -1.6019549176130954,
    "isDefault": 0,
    "isALive": 1,
    "dateLastUpdate": "2023-01-06 13:46:30"
  },
  {
    "idlocation": 45126,
    "id": 565,
    "name": "Entrepot",
    "location": "20;Rue des Halliers",
    "codepostal": "44200",
    "city": "Nantes",
    "department": "Loire-Atlantique",
    "country": "France",
    "latitude": 47.18803337378538,
    "longitude": -1.5127675057488834,
    "isDefault": 0,
    "isALive": 1,
    "dateLastUpdate": "2023-01-06 13:46:30"
  },
  {
    "idlocation": 32061,
    "id": 3860,
    "name": "Chez Moi",
    "location": "30;Rue Francis Le Carval",
    "codepostal": "44400",
    "city": "Rezé",
    "department": "Loire-Atlantique",
    "country": "France",
    "latitude": 47.185911694339524,
    "longitude": -1.5524045890306841,
    "isDefault": 0,
    "isALive": 1,
    "dateLastUpdate": "2023-01-06 13:46:30"
  },
  {
    "idlocation": 63129,
    "id": 3860,
    "name": "Chez les parents",
    "location": "19;Rue Charles Terront",
    "codepostal": "44300",
    "city": "Nantes",
    "department": "Loire-Atlantique",
    "country": "France",
    "latitude": 47.23905610478027,
    "longitude": -1.5746354988712972,
    "isDefault": 0,
    "isALive": 1,
    "dateLastUpdate": "2023-01-06 13:46:30"
  },
  {
    "idlocation": 28318,
    "id": 3860,
    "name": "Entrepot",
    "location": "4;Rue Fernand de Magellan",
    "codepostal": "44980",
    "city": "Sainte-Luce-sur-Loire",
    "department": "Loire-Atlantique",
    "country": "France",
    "latitude": 47.25108599943599,
    "longitude": -1.4739964561341983,
    "isDefault": 0,
    "isALive": 1,
    "dateLastUpdate": "2023-01-06 13:46:30"
  },
  {
    "idlocation": 21285,
    "id": 3860,
    "name": "Chez Moi",
    "location": "14;Rue de la Ramée",
    "codepostal": "44120",
    "city": "Vertou",
    "department": "Loire-Atlantique",
    "country": "France",
    "latitude": 47.1571538791313,
    "longitude": -1.4404295917833323,
    "isDefault": 0,
    "isALive": 1,
    "dateLastUpdate": "2023-01-06 13:46:30"
  },
  {
    "idlocation": 29154,
    "id": 3860,
    "name": "Chez mon frère",
    "location": "31;Rue Saturne",
    "codepostal": "44800",
    "city": "Saint-Herblain",
    "department": "Loire-Atlantique",
    "country": "France",
    "latitude": 47.21651476092324,
    "longitude": -1.6483888575397985,
    "isDefault": 0,
    "isALive": 1,
    "dateLastUpdate": "2023-01-06 13:46:30"
  },
  {
    "idlocation": 1529,
    "id": 3860,
    "name": "Entrepot",
    "location": "17;Rue de l'Angebert",
    "codepostal": "44120",
    "city": "Vertou",
    "department": "Loire-Atlantique",
    "country": "France",
    "latitude": 47.13965604780468,
    "longitude": -1.4507878906928906,
    "isDefault": 0,
    "isALive": 1,
    "dateLastUpdate": "2023-01-06 13:46:30"
  },
  {
    "idlocation": 74019,
    "id": 3860,
    "name": "Chez ma sœur",
    "location": "1;Rue Anne de Bretagne",
    "codepostal": "44240",
    "city": "La Chapelle-sur-Erdre",
    "department": "Loire-Atlantique",
    "country": "France",
    "latitude": 47.29218096229948,
    "longitude": -1.5466191162732064,
    "isDefault": 0,
    "isALive": 1,
    "dateLastUpdate": "2023-01-06 13:46:30"
  },
  {
    "idlocation": 14419,
    "id": 2398,
    "name": "Chez Moi",
    "location": "6;Rue de Quimper",
    "codepostal": "44800",
    "city": "Saint-Herblain",
    "department": "Loire-Atlantique",
    "country": "France",
    "latitude": 47.215764914948636,
    "longitude": -1.6172563377672948,
    "isDefault": 0,
    "isALive": 1,
    "dateLastUpdate": "2023-01-06 13:46:30"
  },
  {
    "idlocation": 15794,
    "id": 2398,
    "name": "Chez ma sœur",
    "location": "43;Rue de la Bourgeonnière",
    "codepostal": "44300",
    "city": "Nantes",
    "department": "Loire-Atlantique",
    "country": "France",
    "latitude": 47.252444667318905,
    "longitude": -1.55435159505302,
    "isDefault": 0,
    "isALive": 1,
    "dateLastUpdate": "2023-01-06 13:46:30"
  },
  {
    "idlocation": 42962,
    "id": 2398,
    "name": "Chez ma sœur",
    "location": "41;Rue du Landas",
    "codepostal": "44640",
    "city": "Saint-Jean-de-Boiseau",
    "department": "Loire-Atlantique",
    "country": "France",
    "latitude": 47.19139667720364,
    "longitude": -1.7232310191105957,
    "isDefault": 0,
    "isALive": 1,
    "dateLastUpdate": "2023-01-06 13:46:30"
  },
  {
    "idlocation": 48586,
    "id": 2398,
    "name": "Chez ma sœur",
    "location": "12;Allée des Salicaires",
    "codepostal": "44240",
    "city": "La Chapelle-sur-Erdre",
    "department": "Loire-Atlantique",
    "country": "France",
    "latitude": 47.30708928869832,
    "longitude": -1.553984259078908,
    "isDefault": 0,
    "isALive": 1,
    "dateLastUpdate": "2023-01-06 13:46:30"
  },
  {
    "idlocation": 23504,
    "id": 2340,
    "name": "Chez Moi",
    "location": "9;Rue des Frères Amieux",
    "codepostal": "44100",
    "city": "Nantes",
    "department": "Loire-Atlantique",
    "country": "France",
    "latitude": 47.202376275042575,
    "longitude": -1.6095053388592961,
    "isDefault": 0,
    "isALive": 1,
    "dateLastUpdate": "2023-01-06 13:46:30"
  },
  {
    "idlocation": 15477,
    "id": 2340,
    "name": "Chez Moi",
    "location": "17;Ter Rue des Doizelleries",
    "codepostal": "44840",
    "city": "Les Sorinières",
    "department": "Loire-Atlantique",
    "country": "France",
    "latitude": 47.14468197669569,
    "longitude": -1.5043167651415974,
    "isDefault": 0,
    "isALive": 1,
    "dateLastUpdate": "2023-01-06 13:46:30"
  },
  {
    "idlocation": 81691,
    "id": 2340,
    "name": "Chez Moi",
    "location": "10;Place Aristide Briand",
    "codepostal": "44470",
    "city": "Carquefou",
    "department": "Loire-Atlantique",
    "country": "France",
    "latitude": 47.29741516676594,
    "longitude": -1.4945607665350111,
    "isDefault": 0,
    "isALive": 1,
    "dateLastUpdate": "2023-01-06 13:46:30"
  },
  {
    "idlocation": 95364,
    "id": 2340,
    "name": "Chez papie",
    "location": "5;Rue Volta",
    "codepostal": "44700",
    "city": "Orvault",
    "department": "Loire-Atlantique",
    "country": "France",
    "latitude": 47.25940759872989,
    "longitude": -1.6382987066708143,
    "isDefault": 0,
    "isALive": 1,
    "dateLastUpdate": "2023-01-06 13:46:30"
  },
  {
    "idlocation": 56151,
    "id": 262,
    "name": "Chez mon frère",
    "location": "10;Rue Marie José",
    "codepostal": "44700",
    "city": "Orvault",
    "department": "Loire-Atlantique",
    "country": "France",
    "latitude": 47.25148398215463,
    "longitude": -1.5771428568667238,
    "isDefault": 0,
    "isALive": 1,
    "dateLastUpdate": "2023-01-06 13:46:30"
  },
  {
    "idlocation": 7813,
    "id": 262,
    "name": "Entrepot",
    "location": "2;Résidence de la Clémencière",
    "codepostal": "44470",
    "city": "Thouaré-sur-Loire",
    "department": "Loire-Atlantique",
    "country": "France",
    "latitude": 47.27129361673124,
    "longitude": -1.438764276683064,
    "isDefault": 0,
    "isALive": 1,
    "dateLastUpdate": "2023-01-06 13:46:30"
  },
  {
    "idlocation": 26958,
    "id": 262,
    "name": "Chez Moi",
    "location": "66;c Rue du Château d'Eau",
    "codepostal": "44240",
    "city": "La Chapelle-sur-Erdre",
    "department": "Loire-Atlantique",
    "country": "France",
    "latitude": 47.27735434965443,
    "longitude": -1.5536994234060437,
    "isDefault": 0,
    "isALive": 1,
    "dateLastUpdate": "2023-01-06 13:46:30"
  },
  {
    "idlocation": 64154,
    "id": 972,
    "name": "Chez ma sœur",
    "location": "6;Impasse de la Trêperie",
    "codepostal": "44115",
    "city": "Basse-Goulaine",
    "department": "Loire-Atlantique",
    "country": "France",
    "latitude": 47.21465542214652,
    "longitude": -1.462821391826407,
    "isDefault": 0,
    "isALive": 1,
    "dateLastUpdate": "2023-01-06 13:46:30"
  },
  {
    "idlocation": 83996,
    "id": 972,
    "name": "Chez papie",
    "location": "3;Rue du Bois de Barre",
    "codepostal": "44100",
    "city": "Nantes",
    "department": "Loire-Atlantique",
    "country": "France",
    "latitude": 47.19848611527485,
    "longitude": -1.599017412294495,
    "isDefault": 0,
    "isALive": 1,
    "dateLastUpdate": "2023-01-06 13:46:30"
  },
  {
    "idlocation": 29785,
    "id": 972,
    "name": "Chez les parents",
    "location": "22;Rue Ernest Sauvestre",
    "codepostal": "44400",
    "city": "Rezé",
    "department": "Loire-Atlantique",
    "country": "France",
    "latitude": 47.166657062211065,
    "longitude": -1.5428319200720364,
    "isDefault": 0,
    "isALive": 1,
    "dateLastUpdate": "2023-01-06 13:46:30"
  },
  {
    "idlocation": 7413,
    "id": 972,
    "name": "Chez ma sœur",
    "location": "14;Bis Rue de la Chevrue",
    "codepostal": "44120",
    "city": "Vertou",
    "department": "Loire-Atlantique",
    "country": "France",
    "latitude": 47.1792811245587,
    "longitude": -1.4338708314666802,
    "isDefault": 0,
    "isALive": 1,
    "dateLastUpdate": "2023-01-06 13:46:30"
  },
  {
    "idlocation": 81198,
    "id": 972,
    "name": "Chez Moi",
    "location": "8;Avenue de Broceliande",
    "codepostal": "44300",
    "city": "Nantes",
    "department": "Loire-Atlantique",
    "country": "France",
    "latitude": 47.2613435066931,
    "longitude": -1.5220410502699913,
    "isDefault": 0,
    "isALive": 1,
    "dateLastUpdate": "2023-01-06 13:46:30"
  },
  {
    "idlocation": 94329,
    "id": 2953,
    "name": "Chez les parents",
    "location": "6;Cour des Voltigeurs",
    "codepostal": "44000",
    "city": "Nantes",
    "department": "Loire-Atlantique",
    "country": "France",
    "latitude": 47.2239184328959,
    "longitude": -1.5646698295177923,
    "isDefault": 0,
    "isALive": 1,
    "dateLastUpdate": "2023-01-06 13:46:30"
  },
  {
    "idlocation": 42348,
    "id": 2953,
    "name": "Chez les parents",
    "location": "15;Avenue Telstar",
    "codepostal": "44300",
    "city": "Nantes",
    "department": "Loire-Atlantique",
    "country": "France",
    "latitude": 47.255024368907364,
    "longitude": -1.5737865910056377,
    "isDefault": 0,
    "isALive": 1,
    "dateLastUpdate": "2023-01-06 13:46:30"
  },
  {
    "idlocation": 80074,
    "id": 404,
    "name": "Chez Moi",
    "location": "26;Avenue Emile Boissier",
    "codepostal": "44000",
    "city": "Nantes",
    "department": "Loire-Atlantique",
    "country": "France",
    "latitude": 47.21693872605042,
    "longitude": -1.5720831266972608,
    "isDefault": 0,
    "isALive": 1,
    "dateLastUpdate": "2023-01-06 13:46:30"
  },
  {
    "idlocation": 51460,
    "id": 404,
    "name": "Entrepot",
    "location": "21;Rue de la Treille",
    "codepostal": "44230",
    "city": "Saint-Sébastien-sur-Loire",
    "department": "Loire-Atlantique",
    "country": "France",
    "latitude": 47.208323319728514,
    "longitude": -1.4986275532606015,
    "isDefault": 0,
    "isALive": 1,
    "dateLastUpdate": "2023-01-06 13:46:30"
  },
  {
    "idlocation": 72284,
    "id": 404,
    "name": "Chez papie",
    "location": "4;Impasse des Bertineries",
    "codepostal": "44400",
    "city": "Rezé",
    "department": "Loire-Atlantique",
    "country": "France",
    "latitude": 47.170132649222616,
    "longitude": -1.5361031073383355,
    "isDefault": 0,
    "isALive": 1,
    "dateLastUpdate": "2023-01-06 13:46:30"
  },
  {
    "idlocation": 35240,
    "id": 404,
    "name": "Chez papie",
    "location": "6;Rue du Moulin",
    "codepostal": "44710",
    "city": "Saint-Léger-les-Vignes",
    "department": "Loire-Atlantique",
    "country": "France",
    "latitude": 47.136602118904975,
    "longitude": -1.733751768183701,
    "isDefault": 0,
    "isALive": 1,
    "dateLastUpdate": "2023-01-06 13:46:30"
  },
  {
    "idlocation": 1247,
    "id": 404,
    "name": "Entrepot",
    "location": "9;Rue Jacques Prévert",
    "codepostal": "44800",
    "city": "Saint-Herblain",
    "department": "Loire-Atlantique",
    "country": "France",
    "latitude": 47.22115345010932,
    "longitude": -1.6097331326175366,
    "isDefault": 0,
    "isALive": 1,
    "dateLastUpdate": "2023-01-06 13:46:30"
  },
  {
    "idlocation": 61958,
    "id": 404,
    "name": "Chez mon frère",
    "location": "4;Rue Paul Cézanne",
    "codepostal": "44840",
    "city": "Les Sorinières",
    "department": "Loire-Atlantique",
    "country": "France",
    "latitude": 47.15510501903487,
    "longitude": -1.5270376291610586,
    "isDefault": 0,
    "isALive": 1,
    "dateLastUpdate": "2023-01-06 13:46:30"
  },
  {
    "idlocation": 37305,
    "id": 404,
    "name": "Chez Moi",
    "location": "54;Rue du Maine",
    "codepostal": "44000",
    "city": "Nantes",
    "department": "Loire-Atlantique",
    "country": "France",
    "latitude": 47.225720768663024,
    "longitude": -1.5665172855593699,
    "isDefault": 0,
    "isALive": 1,
    "dateLastUpdate": "2023-01-06 13:46:30"
  },
  {
    "idlocation": 22551,
    "id": 2700,
    "name": "Chez mon frère",
    "location": "3;a Avenue de l'Alberge",
    "codepostal": "44470",
    "city": "Mauves-sur-Loire",
    "department": "Loire-Atlantique",
    "country": "France",
    "latitude": 47.29649557122086,
    "longitude": -1.3878593601876055,
    "isDefault": 0,
    "isALive": 1,
    "dateLastUpdate": "2023-01-06 13:46:30"
  },
  {
    "idlocation": 65323,
    "id": 2700,
    "name": "Chez mamie",
    "location": "18;Rue de la Hée",
    "codepostal": "44120",
    "city": "Vertou",
    "department": "Loire-Atlantique",
    "country": "France",
    "latitude": 47.138428996165224,
    "longitude": -1.4598602283828885,
    "isDefault": 0,
    "isALive": 1,
    "dateLastUpdate": "2023-01-06 13:46:30"
  },
  {
    "idlocation": 31265,
    "id": 2700,
    "name": "Chez mamie",
    "location": "1;Rue Prémion",
    "codepostal": "44000",
    "city": "Nantes",
    "department": "Loire-Atlantique",
    "country": "France",
    "latitude": 47.217093329420436,
    "longitude": -1.5494304045803784,
    "isDefault": 0,
    "isALive": 1,
    "dateLastUpdate": "2023-01-06 13:46:30"
  },
  {
    "idlocation": 583,
    "id": 2700,
    "name": "Chez ma sœur",
    "location": "74;Rue du Largeau",
    "codepostal": "44230",
    "city": "Saint-Sébastien-sur-Loire",
    "department": "Loire-Atlantique",
    "country": "France",
    "latitude": 47.19161637508616,
    "longitude": -1.5056984872917571,
    "isDefault": 0,
    "isALive": 1,
    "dateLastUpdate": "2023-01-06 13:46:30"
  },
  {
    "idlocation": 68544,
    "id": 2700,
    "name": "Chez mon frère",
    "location": "23;Rue de la Classerie",
    "codepostal": "44400",
    "city": "Rezé",
    "department": "Loire-Atlantique",
    "country": "France",
    "latitude": 47.17534242871136,
    "longitude": -1.560770752538122,
    "isDefault": 0,
    "isALive": 1,
    "dateLastUpdate": "2023-01-06 13:46:30"
  },
  {
    "idlocation": 42931,
    "id": 1558,
    "name": "Chez ma sœur",
    "location": "7;Rue de la Fontaine Caron",
    "codepostal": "44300",
    "city": "Nantes",
    "department": "Loire-Atlantique",
    "country": "France",
    "latitude": 47.27432569399099,
    "longitude": -1.5126016050700473,
    "isDefault": 0,
    "isALive": 1,
    "dateLastUpdate": "2023-01-06 13:46:30"
  },
  {
    "idlocation": 9730,
    "id": 1558,
    "name": "Chez les parents",
    "location": "29;Rue de la Chesnaie",
    "codepostal": "44400",
    "city": "Rezé",
    "department": "Loire-Atlantique",
    "country": "France",
    "latitude": 47.178524062369725,
    "longitude": -1.559958085220501,
    "isDefault": 0,
    "isALive": 1,
    "dateLastUpdate": "2023-01-06 13:46:30"
  },
  {
    "idlocation": 66455,
    "id": 1558,
    "name": "Chez papie",
    "location": "4;Allée de l'Enclos",
    "codepostal": "44240",
    "city": "La Chapelle-sur-Erdre",
    "department": "Loire-Atlantique",
    "country": "France",
    "latitude": 47.26562357647249,
    "longitude": -1.5487753733408058,
    "isDefault": 0,
    "isALive": 1,
    "dateLastUpdate": "2023-01-06 13:46:30"
  },
  {
    "idlocation": 47997,
    "id": 1558,
    "name": "Chez Moi",
    "location": "22;Rue des Jonquilles",
    "codepostal": "44120",
    "city": "Vertou",
    "department": "Loire-Atlantique",
    "country": "France",
    "latitude": 47.17508019009155,
    "longitude": -1.4836894501691558,
    "isDefault": 0,
    "isALive": 1,
    "dateLastUpdate": "2023-01-06 13:46:30"
  },
  {
    "idlocation": 20178,
    "id": 2274,
    "name": "Chez papie",
    "location": "6;Avenue de l'Alberge",
    "codepostal": "44470",
    "city": "Mauves-sur-Loire",
    "department": "Loire-Atlantique",
    "country": "France",
    "latitude": 47.29693892789792,
    "longitude": -1.388104844000891,
    "isDefault": 0,
    "isALive": 1,
    "dateLastUpdate": "2023-01-06 13:46:30"
  },
  {
    "idlocation": 65129,
    "id": 2274,
    "name": "Chez Moi",
    "location": "2;Rue du Maréchal De Lattre De Tassigny",
    "codepostal": "44980",
    "city": "Sainte-Luce-sur-Loire",
    "department": "Loire-Atlantique",
    "country": "France",
    "latitude": 47.24969820971274,
    "longitude": -1.487231180250286,
    "isDefault": 0,
    "isALive": 1,
    "dateLastUpdate": "2023-01-06 13:46:30"
  },
  {
    "idlocation": 3589,
    "id": 2274,
    "name": "Chez ma sœur",
    "location": "75;Rue du Moulin des Landes",
    "codepostal": "44980",
    "city": "Sainte-Luce-sur-Loire",
    "department": "Loire-Atlantique",
    "country": "France",
    "latitude": 47.26317600381675,
    "longitude": -1.482688338939739,
    "isDefault": 0,
    "isALive": 1,
    "dateLastUpdate": "2023-01-06 13:46:30"
  },
  {
    "idlocation": 32413,
    "id": 2274,
    "name": "Chez ma sœur",
    "location": "8;Rue Françis Le Guilloux",
    "codepostal": "44220",
    "city": "Couëron",
    "department": "Loire-Atlantique",
    "country": "France",
    "latitude": 47.21248383877196,
    "longitude": -1.7061450283333432,
    "isDefault": 0,
    "isALive": 1,
    "dateLastUpdate": "2023-01-06 13:46:30"
  },
  {
    "idlocation": 83662,
    "id": 3861,
    "name": "Entrepot",
    "location": "16;Rue des Chalonnières",
    "codepostal": "44400",
    "city": "Rezé",
    "department": "Loire-Atlantique",
    "country": "France",
    "latitude": 47.176971190058566,
    "longitude": -1.5610918093936956,
    "isDefault": 0,
    "isALive": 1,
    "dateLastUpdate": "2023-01-06 13:46:30"
  },
  {
    "idlocation": 33319,
    "id": 3861,
    "name": "Entrepot",
    "location": "5;Rue du Pin Parasol",
    "codepostal": "44860",
    "city": "Saint-Aignan-de-Grand-Lieu",
    "department": "Loire-Atlantique",
    "country": "France",
    "latitude": 47.12619403652504,
    "longitude": -1.6100963629611016,
    "isDefault": 0,
    "isALive": 1,
    "dateLastUpdate": "2023-01-06 13:46:30"
  },
  {
    "idlocation": 85014,
    "id": 3861,
    "name": "Chez les parents",
    "location": "6;Square des Ormeaux",
    "codepostal": "44240",
    "city": "La Chapelle-sur-Erdre",
    "department": "Loire-Atlantique",
    "country": "France",
    "latitude": 47.27987618580513,
    "longitude": -1.5345504830489634,
    "isDefault": 0,
    "isALive": 1,
    "dateLastUpdate": "2023-01-06 13:46:30"
  },
  {
    "idlocation": 82393,
    "id": 3861,
    "name": "Chez mon frère",
    "location": "2;Rue des Bruyères",
    "codepostal": "44640",
    "city": "Saint-Jean-de-Boiseau",
    "department": "Loire-Atlantique",
    "country": "France",
    "latitude": 47.192748854049746,
    "longitude": -1.7269458004321878,
    "isDefault": 0,
    "isALive": 1,
    "dateLastUpdate": "2023-01-06 13:46:30"
  },
  {
    "idlocation": 42102,
    "id": 3861,
    "name": "Chez Moi",
    "location": "7;Rue du Foehn",
    "codepostal": "44100",
    "city": "Nantes",
    "department": "Loire-Atlantique",
    "country": "France",
    "latitude": 47.20110297297597,
    "longitude": -1.6085388295102703,
    "isDefault": 0,
    "isALive": 1,
    "dateLastUpdate": "2023-01-06 13:46:30"
  },
  {
    "idlocation": 12693,
    "id": 3861,
    "name": "Chez ma sœur",
    "location": "20;Bis Rue des Bernardières",
    "codepostal": "44230",
    "city": "Saint-Sébastien-sur-Loire",
    "department": "Loire-Atlantique",
    "country": "France",
    "latitude": 47.191049050333916,
    "longitude": -1.5086466128668843,
    "isDefault": 0,
    "isALive": 1,
    "dateLastUpdate": "2023-01-06 13:46:30"
  },
  {
    "idlocation": 85602,
    "id": 675,
    "name": "Chez les parents",
    "location": "2;Bis Rue Georges Guynemer",
    "codepostal": "44340",
    "city": "Bouguenais",
    "department": "Loire-Atlantique",
    "country": "France",
    "latitude": 47.18523063357558,
    "longitude": -1.5805997351434118,
    "isDefault": 0,
    "isALive": 1,
    "dateLastUpdate": "2023-01-06 13:46:30"
  },
  {
    "idlocation": 27619,
    "id": 675,
    "name": "Chez ma sœur",
    "location": "66;Boulevard du Charbonneau",
    "codepostal": "44470",
    "city": "Carquefou",
    "department": "Loire-Atlantique",
    "country": "France",
    "latitude": 47.30277725476904,
    "longitude": -1.4893802917880916,
    "isDefault": 0,
    "isALive": 1,
    "dateLastUpdate": "2023-01-06 13:46:30"
  },
  {
    "idlocation": 51006,
    "id": 675,
    "name": "Chez Moi",
    "location": "49;Rue du Calvaire de Grillaud",
    "codepostal": "44100",
    "city": "Nantes",
    "department": "Loire-Atlantique",
    "country": "France",
    "latitude": 47.22106424878452,
    "longitude": -1.5801050681825555,
    "isDefault": 0,
    "isALive": 1,
    "dateLastUpdate": "2023-01-06 13:46:30"
  },
  {
    "idlocation": 80542,
    "id": 675,
    "name": "Chez Moi",
    "location": "4;Quai de Versailles",
    "codepostal": "44000",
    "city": "Nantes",
    "department": "Loire-Atlantique",
    "country": "France",
    "latitude": 47.22097773624297,
    "longitude": -1.5545821045255357,
    "isDefault": 0,
    "isALive": 1,
    "dateLastUpdate": "2023-01-06 13:46:30"
  },
  {
    "idlocation": 20213,
    "id": 675,
    "name": "Chez ma sœur",
    "location": "2;Ter Rue Georges Clémenceau",
    "codepostal": "44340",
    "city": "Bouguenais",
    "department": "Loire-Atlantique",
    "country": "France",
    "latitude": 47.18079051249811,
    "longitude": -1.5854496821969706,
    "isDefault": 0,
    "isALive": 1,
    "dateLastUpdate": "2023-01-06 13:46:30"
  },
  {
    "idlocation": 96887,
    "id": 675,
    "name": "Chez papie",
    "location": "6;Rue du Capitaine Némo",
    "codepostal": "44240",
    "city": "La Chapelle-sur-Erdre",
    "department": "Loire-Atlantique",
    "country": "France",
    "latitude": 47.30937379484576,
    "longitude": -1.5549170765100995,
    "isDefault": 0,
    "isALive": 1,
    "dateLastUpdate": "2023-01-06 13:46:30"
  },
  {
    "idlocation": 52384,
    "id": 4099,
    "name": "Chez mamie",
    "location": "21;Bis Rue de la Métairie",
    "codepostal": "44640",
    "city": "Saint-Jean-de-Boiseau",
    "department": "Loire-Atlantique",
    "country": "France",
    "latitude": 47.188428322410715,
    "longitude": -1.7129555628431743,
    "isDefault": 0,
    "isALive": 1,
    "dateLastUpdate": "2023-01-06 13:46:30"
  },
  {
    "idlocation": 59908,
    "id": 4859,
    "name": "Chez ma sœur",
    "location": "11;Rue des Eglantines",
    "codepostal": "44220",
    "city": "Couëron",
    "department": "Loire-Atlantique",
    "country": "France",
    "latitude": 47.21133273812598,
    "longitude": -1.7148876612099202,
    "isDefault": 0,
    "isALive": 1,
    "dateLastUpdate": "2023-01-06 13:46:30"
  },
  {
    "idlocation": 23836,
    "id": 4859,
    "name": "Entrepot",
    "location": "38;Avenue Béranger",
    "codepostal": "44100",
    "city": "Nantes",
    "department": "Loire-Atlantique",
    "country": "France",
    "latitude": 47.21888199035474,
    "longitude": -1.592752171803755,
    "isDefault": 0,
    "isALive": 1,
    "dateLastUpdate": "2023-01-06 13:46:30"
  },
  {
    "idlocation": 70527,
    "id": 4859,
    "name": "Entrepot",
    "location": "6;Rue Vassily Kandinsky",
    "codepostal": "44400",
    "city": "Rezé",
    "department": "Loire-Atlantique",
    "country": "France",
    "latitude": 47.169124115704356,
    "longitude": -1.5550253542823753,
    "isDefault": 0,
    "isALive": 1,
    "dateLastUpdate": "2023-01-06 13:46:30"
  },
  {
    "idlocation": 23963,
    "id": 4859,
    "name": "Chez papie",
    "location": "51;Rue de la Table Ronde",
    "codepostal": "44240",
    "city": "La Chapelle-sur-Erdre",
    "department": "Loire-Atlantique",
    "country": "France",
    "latitude": 47.32344455229058,
    "longitude": -1.5540227732530951,
    "isDefault": 0,
    "isALive": 1,
    "dateLastUpdate": "2023-01-06 13:46:30"
  },
  {
    "idlocation": 57710,
    "id": 4859,
    "name": "Chez ma sœur",
    "location": "4;Impasse Maryse Bastié",
    "codepostal": "44000",
    "city": "Nantes",
    "department": "Loire-Atlantique",
    "country": "France",
    "latitude": 47.231382301118636,
    "longitude": -1.567011760676124,
    "isDefault": 0,
    "isALive": 1,
    "dateLastUpdate": "2023-01-06 13:46:30"
  },
  {
    "idlocation": 79802,
    "id": 4859,
    "name": "Entrepot",
    "location": "65;Boulevard Meusnier de Querlon",
    "codepostal": "44000",
    "city": "Nantes",
    "department": "Loire-Atlantique",
    "country": "France",
    "latitude": 47.22742014544023,
    "longitude": -1.5742128010997505,
    "isDefault": 0,
    "isALive": 1,
    "dateLastUpdate": "2023-01-06 13:46:30"
  },
  {
    "idlocation": 76598,
    "id": 4859,
    "name": "Chez les parents",
    "location": "4;Rue de la Sanglerie",
    "codepostal": "44840",
    "city": "Les Sorinières",
    "department": "Loire-Atlantique",
    "country": "France",
    "latitude": 47.15081234219771,
    "longitude": -1.5303758878618898,
    "isDefault": 0,
    "isALive": 1,
    "dateLastUpdate": "2023-01-06 13:46:30"
  },
  {
    "idlocation": 44640,
    "id": 849,
    "name": "Entrepot",
    "location": "16;Rue Alexandre Gosselin",
    "codepostal": "44300",
    "city": "Nantes",
    "department": "Loire-Atlantique",
    "country": "France",
    "latitude": 47.23958891670067,
    "longitude": -1.5352615485590553,
    "isDefault": 0,
    "isALive": 1,
    "dateLastUpdate": "2023-01-06 13:46:30"
  },
  {
    "idlocation": 87998,
    "id": 849,
    "name": "Chez papie",
    "location": "11;Rue des Orfèvres",
    "codepostal": "44840",
    "city": "Les Sorinières",
    "department": "Loire-Atlantique",
    "country": "France",
    "latitude": 47.14800886736685,
    "longitude": -1.5401968655151728,
    "isDefault": 0,
    "isALive": 1,
    "dateLastUpdate": "2023-01-06 13:46:30"
  },
  {
    "idlocation": 39802,
    "id": 849,
    "name": "Chez les parents",
    "location": "16;Rue des Chevaliers",
    "codepostal": "44400",
    "city": "Rezé",
    "department": "Loire-Atlantique",
    "country": "France",
    "latitude": 47.1959791913978,
    "longitude": -1.5540804787229145,
    "isDefault": 0,
    "isALive": 1,
    "dateLastUpdate": "2023-01-06 13:46:30"
  },
  {
    "idlocation": 76419,
    "id": 849,
    "name": "Chez Moi",
    "location": "3;Impasse des Martières",
    "codepostal": "44115",
    "city": "Basse-Goulaine",
    "department": "Loire-Atlantique",
    "country": "France",
    "latitude": 47.21550214355914,
    "longitude": -1.4674872828128924,
    "isDefault": 0,
    "isALive": 1,
    "dateLastUpdate": "2023-01-06 13:46:30"
  },
  {
    "idlocation": 19343,
    "id": 849,
    "name": "Chez les parents",
    "location": "3;Rue Paul Gauguin",
    "codepostal": "44340",
    "city": "Bouguenais",
    "department": "Loire-Atlantique",
    "country": "France",
    "latitude": 47.15975411671452,
    "longitude": -1.5660882821952173,
    "isDefault": 0,
    "isALive": 1,
    "dateLastUpdate": "2023-01-06 13:46:30"
  },
  {
    "idlocation": 51529,
    "id": 849,
    "name": "Chez les parents",
    "location": "34;Boulevard Robert Schuman",
    "codepostal": "44300",
    "city": "Nantes",
    "department": "Loire-Atlantique",
    "country": "France",
    "latitude": 47.235324171615524,
    "longitude": -1.567439163512436,
    "isDefault": 0,
    "isALive": 1,
    "dateLastUpdate": "2023-01-06 13:46:30"
  },
  {
    "idlocation": 17813,
    "id": 3905,
    "name": "Chez mamie",
    "location": "32;Rue de Neuilly",
    "codepostal": "44700",
    "city": "Orvault",
    "department": "Loire-Atlantique",
    "country": "France",
    "latitude": 47.25947144455211,
    "longitude": -1.5991700893711807,
    "isDefault": 0,
    "isALive": 1,
    "dateLastUpdate": "2023-01-06 13:46:30"
  },
  {
    "idlocation": 85925,
    "id": 3905,
    "name": "Chez papie",
    "location": "3;Rue André Chénier",
    "codepostal": "44300",
    "city": "Nantes",
    "department": "Loire-Atlantique",
    "country": "France",
    "latitude": 47.2530735464935,
    "longitude": -1.567693769821796,
    "isDefault": 0,
    "isALive": 1,
    "dateLastUpdate": "2023-01-06 13:46:30"
  },
  {
    "idlocation": 76952,
    "id": 3905,
    "name": "Chez mon frère",
    "location": "8;Rue de l'Arche Sèche",
    "codepostal": "44000",
    "city": "Nantes",
    "department": "Loire-Atlantique",
    "country": "France",
    "latitude": 47.21552596301289,
    "longitude": -1.558292906687956,
    "isDefault": 0,
    "isALive": 1,
    "dateLastUpdate": "2023-01-06 13:46:30"
  },
  {
    "idlocation": 41166,
    "id": 4973,
    "name": "Chez ma sœur",
    "location": "1;Impasse de la Coudre",
    "codepostal": "44300",
    "city": "Nantes",
    "department": "Loire-Atlantique",
    "country": "France",
    "latitude": 47.245634250867745,
    "longitude": -1.5401360857738926,
    "isDefault": 0,
    "isALive": 1,
    "dateLastUpdate": "2023-01-06 13:46:30"
  },
  {
    "idlocation": 64974,
    "id": 4973,
    "name": "Chez mon frère",
    "location": "42;Rue de la Commune de",
    "codepostal": "44400",
    "city": "Rezé",
    "department": "Loire-Atlantique",
    "country": "France",
    "latitude": 47.18960693579097,
    "longitude": -1.5498342879180276,
    "isDefault": 0,
    "isALive": 1,
    "dateLastUpdate": "2023-01-06 13:46:30"
  },
  {
    "idlocation": 96346,
    "id": 4973,
    "name": "Chez mamie",
    "location": "81;Rue de la Convention",
    "codepostal": "44100",
    "city": "Nantes",
    "department": "Loire-Atlantique",
    "country": "France",
    "latitude": 47.21051293918226,
    "longitude": -1.592326795236404,
    "isDefault": 0,
    "isALive": 1,
    "dateLastUpdate": "2023-01-06 13:46:30"
  },
  {
    "idlocation": 47963,
    "id": 4973,
    "name": "Chez mamie",
    "location": "3;Place du Pré Fleuri",
    "codepostal": "44880",
    "city": "Sautron",
    "department": "Loire-Atlantique",
    "country": "France",
    "latitude": 47.260935311203355,
    "longitude": -1.6822473113033287,
    "isDefault": 0,
    "isALive": 1,
    "dateLastUpdate": "2023-01-06 13:46:30"
  },
  {
    "idlocation": 98182,
    "id": 2634,
    "name": "Chez les parents",
    "location": "8;Avenue de Chambord",
    "codepostal": "44470",
    "city": "Carquefou",
    "department": "Loire-Atlantique",
    "country": "France",
    "latitude": 47.2715758638992,
    "longitude": -1.4811598802236579,
    "isDefault": 0,
    "isALive": 1,
    "dateLastUpdate": "2023-01-06 13:46:30"
  },
  {
    "idlocation": 94900,
    "id": 2634,
    "name": "Chez mamie",
    "location": "2;Impasse du Clos des Anges",
    "codepostal": "44700",
    "city": "Orvault",
    "department": "Loire-Atlantique",
    "country": "France",
    "latitude": 47.27436035278033,
    "longitude": -1.6366633011707468,
    "isDefault": 0,
    "isALive": 1,
    "dateLastUpdate": "2023-01-06 13:46:30"
  },
  {
    "idlocation": 52243,
    "id": 2634,
    "name": "Chez ma sœur",
    "location": "9;Rue de la Hibaudière",
    "codepostal": "44620",
    "city": "La Montagne",
    "department": "Loire-Atlantique",
    "country": "France",
    "latitude": 47.18672813993978,
    "longitude": -1.6760537733903709,
    "isDefault": 0,
    "isALive": 1,
    "dateLastUpdate": "2023-01-06 13:46:30"
  },
  {
    "idlocation": 56134,
    "id": 2634,
    "name": "Entrepot",
    "location": "38;Rue des Flamants Roses",
    "codepostal": "44240",
    "city": "La Chapelle-sur-Erdre",
    "department": "Loire-Atlantique",
    "country": "France",
    "latitude": 47.27105197115259,
    "longitude": -1.5536827903379005,
    "isDefault": 0,
    "isALive": 1,
    "dateLastUpdate": "2023-01-06 13:46:30"
  },
  {
    "idlocation": 93223,
    "id": 1683,
    "name": "Chez mamie",
    "location": "15;Rue de la Marrière",
    "codepostal": "44300",
    "city": "Nantes",
    "department": "Loire-Atlantique",
    "country": "France",
    "latitude": 47.23366362389673,
    "longitude": -1.531987708064433,
    "isDefault": 0,
    "isALive": 1,
    "dateLastUpdate": "2023-01-06 13:46:30"
  },
  {
    "idlocation": 16538,
    "id": 1683,
    "name": "Chez mon frère",
    "location": "36;Ter Rue La Noue Bras de Fer",
    "codepostal": "44200",
    "city": "Nantes",
    "department": "Loire-Atlantique",
    "country": "France",
    "latitude": 47.206844079709995,
    "longitude": -1.563380183529892,
    "isDefault": 0,
    "isALive": 1,
    "dateLastUpdate": "2023-01-06 13:46:30"
  },
  {
    "idlocation": 67840,
    "id": 1683,
    "name": "Chez papie",
    "location": "4;Rue du Petit Bois",
    "codepostal": "44620",
    "city": "La Montagne",
    "department": "Loire-Atlantique",
    "country": "France",
    "latitude": 47.18780431535935,
    "longitude": -1.6773893090513312,
    "isDefault": 0,
    "isALive": 1,
    "dateLastUpdate": "2023-01-06 13:46:30"
  },
  {
    "idlocation": 86017,
    "id": 1683,
    "name": "Chez les parents",
    "location": "18;Avenue de Langeais",
    "codepostal": "44800",
    "city": "Saint-Herblain",
    "department": "Loire-Atlantique",
    "country": "France",
    "latitude": 47.23892889002374,
    "longitude": -1.5952605910255928,
    "isDefault": 0,
    "isALive": 1,
    "dateLastUpdate": "2023-01-06 13:46:30"
  },
  {
    "idlocation": 26126,
    "id": 2448,
    "name": "Chez mamie",
    "location": "51;Rue Léon Say",
    "codepostal": "44000",
    "city": "Nantes",
    "department": "Loire-Atlantique",
    "country": "France",
    "latitude": 47.22932355597867,
    "longitude": -1.5709378329178854,
    "isDefault": 0,
    "isALive": 1,
    "dateLastUpdate": "2023-01-06 13:46:30"
  },
  {
    "idlocation": 68660,
    "id": 2448,
    "name": "Chez ma sœur",
    "location": "22;Rue Pierre Blard",
    "codepostal": "44800",
    "city": "Saint-Herblain",
    "department": "Loire-Atlantique",
    "country": "France",
    "latitude": 47.21190554422334,
    "longitude": -1.6528277945487218,
    "isDefault": 0,
    "isALive": 1,
    "dateLastUpdate": "2023-01-06 13:46:30"
  },
  {
    "idlocation": 58663,
    "id": 2448,
    "name": "Chez ma sœur",
    "location": "9;Rue d'Ottawa",
    "codepostal": "44300",
    "city": "Nantes",
    "department": "Loire-Atlantique",
    "country": "France",
    "latitude": 47.25807730294708,
    "longitude": -1.57623587927448,
    "isDefault": 0,
    "isALive": 1,
    "dateLastUpdate": "2023-01-06 13:46:30"
  },
  {
    "idlocation": 64582,
    "id": 2448,
    "name": "Chez les parents",
    "location": "5;a Rue Auguste Bournigal",
    "codepostal": "44220",
    "city": "Couëron",
    "department": "Loire-Atlantique",
    "country": "France",
    "latitude": 47.22135928096674,
    "longitude": -1.7393694578963168,
    "isDefault": 0,
    "isALive": 1,
    "dateLastUpdate": "2023-01-06 13:46:30"
  },
  {
    "idlocation": 36245,
    "id": 2448,
    "name": "Chez les parents",
    "location": "19;Rue des Pommiers",
    "codepostal": "44700",
    "city": "Orvault",
    "department": "Loire-Atlantique",
    "country": "France",
    "latitude": 47.251332390339556,
    "longitude": -1.594496030431152,
    "isDefault": 0,
    "isALive": 1,
    "dateLastUpdate": "2023-01-06 13:46:30"
  },
  {
    "idlocation": 14226,
    "id": 2448,
    "name": "Chez les parents",
    "location": "12;Rue des Chardonnerets",
    "codepostal": "44620",
    "city": "La Montagne",
    "department": "Loire-Atlantique",
    "country": "France",
    "latitude": 47.186940507517726,
    "longitude": -1.670941447505773,
    "isDefault": 0,
    "isALive": 1,
    "dateLastUpdate": "2023-01-06 13:46:30"
  },
  {
    "idlocation": 86457,
    "id": 2448,
    "name": "Chez mamie",
    "location": "27;Rue de la Planche au Gué",
    "codepostal": "44300",
    "city": "Nantes",
    "department": "Loire-Atlantique",
    "country": "France",
    "latitude": 47.27188827220737,
    "longitude": -1.52089490305426,
    "isDefault": 0,
    "isALive": 1,
    "dateLastUpdate": "2023-01-06 13:46:30"
  },
  {
    "idlocation": 91753,
    "id": 3881,
    "name": "Chez ma sœur",
    "location": "94;Rue Charles Rivière",
    "codepostal": "44400",
    "city": "Rezé",
    "department": "Loire-Atlantique",
    "country": "France",
    "latitude": 47.170274115289715,
    "longitude": -1.5432521745980183,
    "isDefault": 0,
    "isALive": 1,
    "dateLastUpdate": "2023-01-06 13:46:30"
  },
  {
    "idlocation": 2699,
    "id": 3881,
    "name": "Chez mamie",
    "location": "26;Rue Jules Vallès",
    "codepostal": "44340",
    "city": "Bouguenais",
    "department": "Loire-Atlantique",
    "country": "France",
    "latitude": 47.173897509805435,
    "longitude": -1.5703983377460533,
    "isDefault": 0,
    "isALive": 1,
    "dateLastUpdate": "2023-01-06 13:46:30"
  },
  {
    "idlocation": 62230,
    "id": 3881,
    "name": "Chez ma sœur",
    "location": "3;Avenue Chantepie",
    "codepostal": "44000",
    "city": "Nantes",
    "department": "Loire-Atlantique",
    "country": "France",
    "latitude": 47.22545996333341,
    "longitude": -1.5433902579992607,
    "isDefault": 0,
    "isALive": 1,
    "dateLastUpdate": "2023-01-06 13:46:30"
  },
  {
    "idlocation": 7255,
    "id": 3881,
    "name": "Entrepot",
    "location": "29;Rue Sylvain Royé",
    "codepostal": "44100",
    "city": "Nantes",
    "department": "Loire-Atlantique",
    "country": "France",
    "latitude": 47.20400382540597,
    "longitude": -1.5908760475671448,
    "isDefault": 0,
    "isALive": 1,
    "dateLastUpdate": "2023-01-06 13:46:30"
  },
  {
    "idlocation": 56358,
    "id": 2007,
    "name": "Chez mamie",
    "location": "20;Route de Brimberne",
    "codepostal": "44880",
    "city": "Sautron",
    "department": "Loire-Atlantique",
    "country": "France",
    "latitude": 47.25201868829071,
    "longitude": -1.657159968764901,
    "isDefault": 0,
    "isALive": 1,
    "dateLastUpdate": "2023-01-06 13:46:30"
  },
  {
    "idlocation": 31718,
    "id": 2007,
    "name": "Chez ma sœur",
    "location": "37;Rue des Marronniers",
    "codepostal": "44700",
    "city": "Orvault",
    "department": "Loire-Atlantique",
    "country": "France",
    "latitude": 47.25397568673183,
    "longitude": -1.6089270649856826,
    "isDefault": 0,
    "isALive": 1,
    "dateLastUpdate": "2023-01-06 13:46:30"
  },
  {
    "idlocation": 51817,
    "id": 4010,
    "name": "Chez ma sœur",
    "location": "14;Avenue des Bouleaux",
    "codepostal": "44980",
    "city": "Sainte-Luce-sur-Loire",
    "department": "Loire-Atlantique",
    "country": "France",
    "latitude": 47.2522124356346,
    "longitude": -1.4946027722701116,
    "isDefault": 0,
    "isALive": 1,
    "dateLastUpdate": "2023-01-06 13:46:30"
  },
  {
    "idlocation": 59406,
    "id": 4010,
    "name": "Chez mon frère",
    "location": "10;Rue Charles Laisant",
    "codepostal": "44100",
    "city": "Nantes",
    "department": "Loire-Atlantique",
    "country": "France",
    "latitude": 47.210056083541076,
    "longitude": -1.583177295957411,
    "isDefault": 0,
    "isALive": 1,
    "dateLastUpdate": "2023-01-06 13:46:30"
  },
  {
    "idlocation": 53972,
    "id": 4010,
    "name": "Entrepot",
    "location": "12;Rue des Hortensias",
    "codepostal": "44610",
    "city": "Indre",
    "department": "Loire-Atlantique",
    "country": "France",
    "latitude": 47.20185726165377,
    "longitude": -1.6716390561320373,
    "isDefault": 0,
    "isALive": 1,
    "dateLastUpdate": "2023-01-06 13:46:30"
  },
  {
    "idlocation": 79509,
    "id": 3269,
    "name": "Chez mon frère",
    "location": "4;Rue de la Pierre Blanche",
    "codepostal": "44340",
    "city": "Bouguenais",
    "department": "Loire-Atlantique",
    "country": "France",
    "latitude": 47.173025522014335,
    "longitude": -1.6286122997583043,
    "isDefault": 0,
    "isALive": 1,
    "dateLastUpdate": "2023-01-06 13:46:30"
  },
  {
    "idlocation": 31979,
    "id": 3269,
    "name": "Chez mon frère",
    "location": "8;Allée des Pins",
    "codepostal": "44240",
    "city": "La Chapelle-sur-Erdre",
    "department": "Loire-Atlantique",
    "country": "France",
    "latitude": 47.31071876952168,
    "longitude": -1.5583112623670554,
    "isDefault": 0,
    "isALive": 1,
    "dateLastUpdate": "2023-01-06 13:46:30"
  },
  {
    "idlocation": 92672,
    "id": 3269,
    "name": "Chez mon frère",
    "location": "5;Impasse des Vénètes",
    "codepostal": "44840",
    "city": "Les Sorinières",
    "department": "Loire-Atlantique",
    "country": "France",
    "latitude": 47.157901347883964,
    "longitude": -1.5286806155183954,
    "isDefault": 0,
    "isALive": 1,
    "dateLastUpdate": "2023-01-06 13:46:30"
  },
  {
    "idlocation": 66197,
    "id": 3269,
    "name": "Chez ma sœur",
    "location": "1;Rue Marcel de la Provoté",
    "codepostal": "44220",
    "city": "Couëron",
    "department": "Loire-Atlantique",
    "country": "France",
    "latitude": 47.2111189152619,
    "longitude": -1.7336672950866954,
    "isDefault": 0,
    "isALive": 1,
    "dateLastUpdate": "2023-01-06 13:46:30"
  },
  {
    "idlocation": 20589,
    "id": 3269,
    "name": "Chez Moi",
    "location": "5;Rue Jean Philippe Rameau",
    "codepostal": "44220",
    "city": "Couëron",
    "department": "Loire-Atlantique",
    "country": "France",
    "latitude": 47.21537887508355,
    "longitude": -1.7124199634625283,
    "isDefault": 0,
    "isALive": 1,
    "dateLastUpdate": "2023-01-06 13:46:30"
  },
  {
    "idlocation": 46276,
    "id": 620,
    "name": "Entrepot",
    "location": "8;Rue de la Sermonière",
    "codepostal": "44400",
    "city": "Rezé",
    "department": "Loire-Atlantique",
    "country": "France",
    "latitude": 47.18303528428711,
    "longitude": -1.5413236194358213,
    "isDefault": 0,
    "isALive": 1,
    "dateLastUpdate": "2023-01-06 13:46:30"
  },
  {
    "idlocation": 9495,
    "id": 620,
    "name": "Chez mon frère",
    "location": "14;Avenue des Ormeaux",
    "codepostal": "44470",
    "city": "Carquefou",
    "department": "Loire-Atlantique",
    "country": "France",
    "latitude": 47.31048024389274,
    "longitude": -1.5088985165660154,
    "isDefault": 0,
    "isALive": 1,
    "dateLastUpdate": "2023-01-06 13:46:30"
  },
  {
    "idlocation": 43758,
    "id": 620,
    "name": "Chez Moi",
    "location": "29;Rue de la Papotière",
    "codepostal": "44300",
    "city": "Nantes",
    "department": "Loire-Atlantique",
    "country": "France",
    "latitude": 47.23810109672401,
    "longitude": -1.5015850898782963,
    "isDefault": 0,
    "isALive": 1,
    "dateLastUpdate": "2023-01-06 13:46:30"
  },
  {
    "idlocation": 37980,
    "id": 2960,
    "name": "Entrepot",
    "location": "47;Rue Marcel Sembat",
    "codepostal": "44610",
    "city": "Indre",
    "department": "Loire-Atlantique",
    "country": "France",
    "latitude": 47.201499581269275,
    "longitude": -1.6774093584211016,
    "isDefault": 0,
    "isALive": 1,
    "dateLastUpdate": "2023-01-06 13:46:30"
  },
  {
    "idlocation": 66571,
    "id": 2960,
    "name": "Entrepot",
    "location": "9;Allée de la Civelière",
    "codepostal": "44200",
    "city": "Nantes",
    "department": "Loire-Atlantique",
    "country": "France",
    "latitude": 47.18964457641359,
    "longitude": -1.5202491559317401,
    "isDefault": 0,
    "isALive": 1,
    "dateLastUpdate": "2023-01-06 13:46:30"
  },
  {
    "idlocation": 50197,
    "id": 2960,
    "name": "Entrepot",
    "location": "12;Avenue Manet",
    "codepostal": "44120",
    "city": "Vertou",
    "department": "Loire-Atlantique",
    "country": "France",
    "latitude": 47.17246427429299,
    "longitude": -1.4881555650605214,
    "isDefault": 0,
    "isALive": 1,
    "dateLastUpdate": "2023-01-06 13:46:30"
  },
  {
    "idlocation": 88020,
    "id": 2960,
    "name": "Chez ma sœur",
    "location": "4;Avenue des Bécassines",
    "codepostal": "44470",
    "city": "Carquefou",
    "department": "Loire-Atlantique",
    "country": "France",
    "latitude": 47.27520309941976,
    "longitude": -1.4996036565633886,
    "isDefault": 0,
    "isALive": 1,
    "dateLastUpdate": "2023-01-06 13:46:30"
  },
  {
    "idlocation": 30698,
    "id": 2960,
    "name": "Chez papie",
    "location": "16;Rue Centrale",
    "codepostal": "44100",
    "city": "Nantes",
    "department": "Loire-Atlantique",
    "country": "France",
    "latitude": 47.215862041635255,
    "longitude": -1.590058529511223,
    "isDefault": 0,
    "isALive": 1,
    "dateLastUpdate": "2023-01-06 13:46:30"
  },
  {
    "idlocation": 96865,
    "id": 2960,
    "name": "Chez les parents",
    "location": "55;Rue de la Profondine",
    "codepostal": "44230",
    "city": "Saint-Sébastien-sur-Loire",
    "department": "Loire-Atlantique",
    "country": "France",
    "latitude": 47.196868760785264,
    "longitude": -1.4927760015821836,
    "isDefault": 0,
    "isALive": 1,
    "dateLastUpdate": "2023-01-06 13:46:30"
  },
  {
    "idlocation": 72557,
    "id": 2030,
    "name": "Chez mamie",
    "location": "8;Avenue du Clos Gaux",
    "codepostal": "44300",
    "city": "Nantes",
    "department": "Loire-Atlantique",
    "country": "France",
    "latitude": 47.24391021162484,
    "longitude": -1.5117703160636504,
    "isDefault": 0,
    "isALive": 1,
    "dateLastUpdate": "2023-01-06 13:46:30"
  },
  {
    "idlocation": 32873,
    "id": 2030,
    "name": "Chez mon frère",
    "location": "24;Ter Rue de la Gare",
    "codepostal": "44830",
    "city": "Bouaye",
    "department": "Loire-Atlantique",
    "country": "France",
    "latitude": 47.14186680563557,
    "longitude": -1.68735800442458,
    "isDefault": 0,
    "isALive": 1,
    "dateLastUpdate": "2023-01-06 13:46:30"
  },
  {
    "idlocation": 83850,
    "id": 2030,
    "name": "Entrepot",
    "location": "10;Rue Mal Leclerc de Hautecloque",
    "codepostal": "44240",
    "city": "La Chapelle-sur-Erdre",
    "department": "Loire-Atlantique",
    "country": "France",
    "latitude": 47.30305650905411,
    "longitude": -1.5563035514871963,
    "isDefault": 0,
    "isALive": 1,
    "dateLastUpdate": "2023-01-06 13:46:30"
  },
  {
    "idlocation": 96380,
    "id": 2030,
    "name": "Chez mon frère",
    "location": "11;Rue du Loquidy",
    "codepostal": "44300",
    "city": "Nantes",
    "department": "Loire-Atlantique",
    "country": "France",
    "latitude": 47.23417175926205,
    "longitude": -1.559447507667662,
    "isDefault": 0,
    "isALive": 1,
    "dateLastUpdate": "2023-01-06 13:46:30"
  },
  {
    "idlocation": 66099,
    "id": 2030,
    "name": "Entrepot",
    "location": "45;Rue Jean-Baptiste et Henri Tendron",
    "codepostal": "44400",
    "city": "Rezé",
    "department": "Loire-Atlantique",
    "country": "France",
    "latitude": 47.17256171727168,
    "longitude": -1.5461002884174617,
    "isDefault": 0,
    "isALive": 1,
    "dateLastUpdate": "2023-01-06 13:46:30"
  },
  {
    "idlocation": 79455,
    "id": 2030,
    "name": "Chez les parents",
    "location": "3;Avenue de la Mustaudière",
    "codepostal": "44300",
    "city": "Nantes",
    "department": "Loire-Atlantique",
    "country": "France",
    "latitude": 47.23630102912495,
    "longitude": -1.507239909743191,
    "isDefault": 0,
    "isALive": 1,
    "dateLastUpdate": "2023-01-06 13:46:30"
  },
  {
    "idlocation": 53469,
    "id": 2030,
    "name": "Chez mamie",
    "location": "63;Rue Jean Emile Laboureur",
    "codepostal": "44000",
    "city": "Nantes",
    "department": "Loire-Atlantique",
    "country": "France",
    "latitude": 47.22655025317828,
    "longitude": -1.5529240845221641,
    "isDefault": 0,
    "isALive": 1,
    "dateLastUpdate": "2023-01-06 13:46:30"
  },
  {
    "idlocation": 3421,
    "id": 1233,
    "name": "Chez mamie",
    "location": "3;Rue Marcel Pagnol",
    "codepostal": "44240",
    "city": "La Chapelle-sur-Erdre",
    "department": "Loire-Atlantique",
    "country": "France",
    "latitude": 47.287882398660486,
    "longitude": -1.5508036327335848,
    "isDefault": 0,
    "isALive": 1,
    "dateLastUpdate": "2023-01-06 13:46:30"
  },
  {
    "idlocation": 40912,
    "id": 1233,
    "name": "Chez Moi",
    "location": "4;Rue Edgar Quinet",
    "codepostal": "44100",
    "city": "Nantes",
    "department": "Loire-Atlantique",
    "country": "France",
    "latitude": 47.21706760444729,
    "longitude": -1.582251477233139,
    "isDefault": 0,
    "isALive": 1,
    "dateLastUpdate": "2023-01-06 13:46:30"
  },
  {
    "idlocation": 66014,
    "id": 1233,
    "name": "Chez papie",
    "location": "16;Bis Rue Claude Debussy",
    "codepostal": "44700",
    "city": "Orvault",
    "department": "Loire-Atlantique",
    "country": "France",
    "latitude": 47.25474234120172,
    "longitude": -1.6070287506542298,
    "isDefault": 0,
    "isALive": 1,
    "dateLastUpdate": "2023-01-06 13:46:30"
  },
  {
    "idlocation": 22181,
    "id": 1233,
    "name": "Chez papie",
    "location": "20;Avenue Armand Duez",
    "codepostal": "44230",
    "city": "Saint-Sébastien-sur-Loire",
    "department": "Loire-Atlantique",
    "country": "France",
    "latitude": 47.20763793834983,
    "longitude": -1.5070354383923825,
    "isDefault": 0,
    "isALive": 1,
    "dateLastUpdate": "2023-01-06 13:46:30"
  },
  {
    "idlocation": 89922,
    "id": 1233,
    "name": "Chez papie",
    "location": "11;Rue Président Edouard Herriot",
    "codepostal": "44000",
    "city": "Nantes",
    "department": "Loire-Atlantique",
    "country": "France",
    "latitude": 47.218684206719736,
    "longitude": -1.5607312900989387,
    "isDefault": 0,
    "isALive": 1,
    "dateLastUpdate": "2023-01-06 13:46:30"
  },
  {
    "idlocation": 16543,
    "id": 1233,
    "name": "Chez ma sœur",
    "location": "5;Avenue de Bellevue",
    "codepostal": "44800",
    "city": "Saint-Herblain",
    "department": "Loire-Atlantique",
    "country": "France",
    "latitude": 47.23414117675345,
    "longitude": -1.586070199976613,
    "isDefault": 0,
    "isALive": 1,
    "dateLastUpdate": "2023-01-06 13:46:30"
  },
  {
    "idlocation": 23323,
    "id": 682,
    "name": "Chez mamie",
    "location": "24;Rue du Bois de Barre",
    "codepostal": "44100",
    "city": "Nantes",
    "department": "Loire-Atlantique",
    "country": "France",
    "latitude": 47.19993314834219,
    "longitude": -1.598541406522662,
    "isDefault": 0,
    "isALive": 1,
    "dateLastUpdate": "2023-01-06 13:46:30"
  },
  {
    "idlocation": 27952,
    "id": 682,
    "name": "Chez les parents",
    "location": "117;Rue du Chêne Creux",
    "codepostal": "44400",
    "city": "Rezé",
    "department": "Loire-Atlantique",
    "country": "France",
    "latitude": 47.17089736467075,
    "longitude": -1.5482389875805327,
    "isDefault": 0,
    "isALive": 1,
    "dateLastUpdate": "2023-01-06 13:46:30"
  },
  {
    "idlocation": 5556,
    "id": 682,
    "name": "Chez Moi",
    "location": "50;Rue de la Rivière",
    "codepostal": "44300",
    "city": "Nantes",
    "department": "Loire-Atlantique",
    "country": "France",
    "latitude": 47.234902211745776,
    "longitude": -1.502263113039282,
    "isDefault": 0,
    "isALive": 1,
    "dateLastUpdate": "2023-01-06 13:46:30"
  },
  {
    "idlocation": 50602,
    "id": 3210,
    "name": "Chez papie",
    "location": "6;Avenue du Sirocco",
    "codepostal": "44300",
    "city": "Nantes",
    "department": "Loire-Atlantique",
    "country": "France",
    "latitude": 47.22976015887116,
    "longitude": -1.5194337686559334,
    "isDefault": 0,
    "isALive": 1,
    "dateLastUpdate": "2023-01-06 13:46:30"
  },
  {
    "idlocation": 99087,
    "id": 3210,
    "name": "Entrepot",
    "location": "21;Bis Rue de Nantes",
    "codepostal": "44880",
    "city": "Sautron",
    "department": "Loire-Atlantique",
    "country": "France",
    "latitude": 47.26034117134568,
    "longitude": -1.6603935875107285,
    "isDefault": 0,
    "isALive": 1,
    "dateLastUpdate": "2023-01-06 13:46:30"
  },
  {
    "idlocation": 51416,
    "id": 3210,
    "name": "Entrepot",
    "location": "10;Rue des Hêtres",
    "codepostal": "44230",
    "city": "Saint-Sébastien-sur-Loire",
    "department": "Loire-Atlantique",
    "country": "France",
    "latitude": 47.19569233092344,
    "longitude": -1.4961892282562563,
    "isDefault": 0,
    "isALive": 1,
    "dateLastUpdate": "2023-01-06 13:46:30"
  },
  {
    "idlocation": 25020,
    "id": 3210,
    "name": "Chez mamie",
    "location": "2;Rue Bertrand Geslin",
    "codepostal": "44000",
    "city": "Nantes",
    "department": "Loire-Atlantique",
    "country": "France",
    "latitude": 47.21522311025062,
    "longitude": -1.5666709525027336,
    "isDefault": 0,
    "isALive": 1,
    "dateLastUpdate": "2023-01-06 13:46:30"
  },
  {
    "idlocation": 17440,
    "id": 3210,
    "name": "Chez mon frère",
    "location": "29;Avenue du Cimetière Saint Clair",
    "codepostal": "44100",
    "city": "Nantes",
    "department": "Loire-Atlantique",
    "country": "France",
    "latitude": 47.21546316527847,
    "longitude": -1.5933713969602155,
    "isDefault": 0,
    "isALive": 1,
    "dateLastUpdate": "2023-01-06 13:46:30"
  },
  {
    "idlocation": 10141,
    "id": 2499,
    "name": "Entrepot",
    "location": "31;Rue Capitaine Yves Hervouet",
    "codepostal": "44300",
    "city": "Nantes",
    "department": "Loire-Atlantique",
    "country": "France",
    "latitude": 47.25916974538971,
    "longitude": -1.5649954241151858,
    "isDefault": 0,
    "isALive": 1,
    "dateLastUpdate": "2023-01-06 13:46:30"
  },
  {
    "idlocation": 7560,
    "id": 1187,
    "name": "Chez papie",
    "location": "7;Rue de la Garotterie",
    "codepostal": "44800",
    "city": "Saint-Herblain",
    "department": "Loire-Atlantique",
    "country": "France",
    "latitude": 47.22579430838626,
    "longitude": -1.6071575556186992,
    "isDefault": 0,
    "isALive": 1,
    "dateLastUpdate": "2023-01-06 13:46:30"
  },
  {
    "idlocation": 34909,
    "id": 1187,
    "name": "Chez mon frère",
    "location": "12;Bis Rue des Pavillons",
    "codepostal": "44100",
    "city": "Nantes",
    "department": "Loire-Atlantique",
    "country": "France",
    "latitude": 47.20007684484051,
    "longitude": -1.5938717725223368,
    "isDefault": 0,
    "isALive": 1,
    "dateLastUpdate": "2023-01-06 13:46:30"
  },
  {
    "idlocation": 85426,
    "id": 245,
    "name": "Chez mamie",
    "location": "22;Rue Etienne Larchey",
    "codepostal": "44000",
    "city": "Nantes",
    "department": "Loire-Atlantique",
    "country": "France",
    "latitude": 47.22632529671029,
    "longitude": -1.527714115532572,
    "isDefault": 0,
    "isALive": 1,
    "dateLastUpdate": "2023-01-06 13:46:30"
  },
  {
    "idlocation": 66964,
    "id": 245,
    "name": "Entrepot",
    "location": "9;Rue de l'Ile aux Oiseaux",
    "codepostal": "44980",
    "city": "Sainte-Luce-sur-Loire",
    "department": "Loire-Atlantique",
    "country": "France",
    "latitude": 47.260915283793494,
    "longitude": -1.4733605970117256,
    "isDefault": 0,
    "isALive": 1,
    "dateLastUpdate": "2023-01-06 13:46:30"
  },
  {
    "idlocation": 32961,
    "id": 2457,
    "name": "Chez papie",
    "location": "5;Place Hilaire de Benay",
    "codepostal": "44470",
    "city": "Carquefou",
    "department": "Loire-Atlantique",
    "country": "France",
    "latitude": 47.281043539688454,
    "longitude": -1.4832711324876051,
    "isDefault": 0,
    "isALive": 1,
    "dateLastUpdate": "2023-01-06 13:46:30"
  },
  {
    "idlocation": 78070,
    "id": 2457,
    "name": "Chez les parents",
    "location": "4;Avenue de Plaisance",
    "codepostal": "44830",
    "city": "Bouaye",
    "department": "Loire-Atlantique",
    "country": "France",
    "latitude": 47.14171973912682,
    "longitude": -1.6899278235783655,
    "isDefault": 0,
    "isALive": 1,
    "dateLastUpdate": "2023-01-06 13:46:30"
  },
  {
    "idlocation": 10817,
    "id": 2457,
    "name": "Chez mamie",
    "location": "3;Rue de Billiou",
    "codepostal": "44470",
    "city": "Carquefou",
    "department": "Loire-Atlantique",
    "country": "France",
    "latitude": 47.28435122982292,
    "longitude": -1.4598274877453843,
    "isDefault": 0,
    "isALive": 1,
    "dateLastUpdate": "2023-01-06 13:46:30"
  },
  {
    "idlocation": 40623,
    "id": 2457,
    "name": "Chez Moi",
    "location": "35;Bis Rue de Gesvres",
    "codepostal": "44300",
    "city": "Nantes",
    "department": "Loire-Atlantique",
    "country": "France",
    "latitude": 47.25740709490933,
    "longitude": -1.572166230719299,
    "isDefault": 0,
    "isALive": 1,
    "dateLastUpdate": "2023-01-06 13:46:30"
  },
  {
    "idlocation": 3609,
    "id": 2457,
    "name": "Chez papie",
    "location": "3;Impasse du Luberon",
    "codepostal": "44470",
    "city": "Thouaré-sur-Loire",
    "department": "Loire-Atlantique",
    "country": "France",
    "latitude": 47.27642883790566,
    "longitude": -1.4347655740903054,
    "isDefault": 0,
    "isALive": 1,
    "dateLastUpdate": "2023-01-06 13:46:30"
  },
  {
    "idlocation": 43145,
    "id": 663,
    "name": "Chez mamie",
    "location": "3;Rue de l'Eraudière",
    "codepostal": "44300",
    "city": "Nantes",
    "department": "Loire-Atlantique",
    "country": "France",
    "latitude": 47.23643455928491,
    "longitude": -1.5407311322161306,
    "isDefault": 0,
    "isALive": 1,
    "dateLastUpdate": "2023-01-06 13:46:30"
  },
  {
    "idlocation": 7984,
    "id": 663,
    "name": "Chez ma sœur",
    "location": "22;Rue de la Rainière",
    "codepostal": "44300",
    "city": "Nantes",
    "department": "Loire-Atlantique",
    "country": "France",
    "latitude": 47.247327523167954,
    "longitude": -1.508317249061835,
    "isDefault": 0,
    "isALive": 1,
    "dateLastUpdate": "2023-01-06 13:46:30"
  },
  {
    "idlocation": 49900,
    "id": 663,
    "name": "Chez ma sœur",
    "location": "5;Avenue de la Dagonnière",
    "codepostal": "44470",
    "city": "Carquefou",
    "department": "Loire-Atlantique",
    "country": "France",
    "latitude": 47.30944114669841,
    "longitude": -1.5081317056716554,
    "isDefault": 0,
    "isALive": 1,
    "dateLastUpdate": "2023-01-06 13:46:30"
  },
  {
    "idlocation": 90837,
    "id": 663,
    "name": "Chez les parents",
    "location": "72;Route de Rennes",
    "codepostal": "44300",
    "city": "Nantes",
    "department": "Loire-Atlantique",
    "country": "France",
    "latitude": 47.25279029780566,
    "longitude": -1.5761642996369212,
    "isDefault": 0,
    "isALive": 1,
    "dateLastUpdate": "2023-01-06 13:46:30"
  },
  {
    "idlocation": 89386,
    "id": 3478,
    "name": "Chez mon frère",
    "location": "10;Avenue des Jonquilles",
    "codepostal": "44980",
    "city": "Sainte-Luce-sur-Loire",
    "department": "Loire-Atlantique",
    "country": "France",
    "latitude": 47.252108095320274,
    "longitude": -1.4866372143252793,
    "isDefault": 0,
    "isALive": 1,
    "dateLastUpdate": "2023-01-06 13:46:30"
  },
  {
    "idlocation": 51694,
    "id": 3478,
    "name": "Entrepot",
    "location": "86;Rue de la Corniche",
    "codepostal": "44700",
    "city": "Orvault",
    "department": "Loire-Atlantique",
    "country": "France",
    "latitude": 47.25668838903311,
    "longitude": -1.5922161806135544,
    "isDefault": 0,
    "isALive": 1,
    "dateLastUpdate": "2023-01-06 13:46:30"
  },
  {
    "idlocation": 19577,
    "id": 2742,
    "name": "Chez mamie",
    "location": "19;Rue de la Ferronnière",
    "codepostal": "44880",
    "city": "Sautron",
    "department": "Loire-Atlantique",
    "country": "France",
    "latitude": 47.259932889945524,
    "longitude": -1.6751387460645657,
    "isDefault": 0,
    "isALive": 1,
    "dateLastUpdate": "2023-01-06 13:46:30"
  },
  {
    "idlocation": 81766,
    "id": 2742,
    "name": "Chez papie",
    "location": "28;Bis Rue des Mortiers",
    "codepostal": "44230",
    "city": "Saint-Sébastien-sur-Loire",
    "department": "Loire-Atlantique",
    "country": "France",
    "latitude": 47.20185218304428,
    "longitude": -1.5105473597434176,
    "isDefault": 0,
    "isALive": 1,
    "dateLastUpdate": "2023-01-06 13:46:30"
  },
  {
    "idlocation": 26887,
    "id": 2742,
    "name": "Chez les parents",
    "location": "8;Place Levoyer",
    "codepostal": "44400",
    "city": "Rezé",
    "department": "Loire-Atlantique",
    "country": "France",
    "latitude": 47.194194690068166,
    "longitude": -1.581762502587142,
    "isDefault": 0,
    "isALive": 1,
    "dateLastUpdate": "2023-01-06 13:46:30"
  },
  {
    "idlocation": 7784,
    "id": 2742,
    "name": "Chez papie",
    "location": "7;Impasse Docteur Guérin",
    "codepostal": "44800",
    "city": "Saint-Herblain",
    "department": "Loire-Atlantique",
    "country": "France",
    "latitude": 47.234443571641165,
    "longitude": -1.6304345541348426,
    "isDefault": 0,
    "isALive": 1,
    "dateLastUpdate": "2023-01-06 13:46:30"
  },
  {
    "idlocation": 98660,
    "id": 2742,
    "name": "Chez mamie",
    "location": "2;Avenue des Abeilles",
    "codepostal": "44120",
    "city": "Vertou",
    "department": "Loire-Atlantique",
    "country": "France",
    "latitude": 47.18721339817092,
    "longitude": -1.4983267900214263,
    "isDefault": 0,
    "isALive": 1,
    "dateLastUpdate": "2023-01-06 13:46:30"
  },
  {
    "idlocation": 55061,
    "id": 2742,
    "name": "Chez ma sœur",
    "location": "9;Petite Rue Commandant Noury",
    "codepostal": "44100",
    "city": "Nantes",
    "department": "Loire-Atlantique",
    "country": "France",
    "latitude": 47.21656764965996,
    "longitude": -1.5894635939461998,
    "isDefault": 0,
    "isALive": 1,
    "dateLastUpdate": "2023-01-06 13:46:30"
  },
  {
    "idlocation": 27365,
    "id": 2742,
    "name": "Chez Moi",
    "location": "1;Rue du Cheval à Bascule",
    "codepostal": "44340",
    "city": "Bouguenais",
    "department": "Loire-Atlantique",
    "country": "France",
    "latitude": 47.17240015672428,
    "longitude": -1.6265393243850417,
    "isDefault": 0,
    "isALive": 1,
    "dateLastUpdate": "2023-01-06 13:46:30"
  },
  {
    "idlocation": 45166,
    "id": 4873,
    "name": "Entrepot",
    "location": "12;Rue Simone Signoret",
    "codepostal": "44400",
    "city": "Rezé",
    "department": "Loire-Atlantique",
    "country": "France",
    "latitude": 47.17563126744051,
    "longitude": -1.5628735680804462,
    "isDefault": 0,
    "isALive": 1,
    "dateLastUpdate": "2023-01-06 13:46:30"
  },
  {
    "idlocation": 82836,
    "id": 4873,
    "name": "Chez Moi",
    "location": "2;Bis Rue Lapeyrade",
    "codepostal": "44100",
    "city": "Nantes",
    "department": "Loire-Atlantique",
    "country": "France",
    "latitude": 47.21917031963156,
    "longitude": -1.5877439353367735,
    "isDefault": 0,
    "isALive": 1,
    "dateLastUpdate": "2023-01-06 13:46:30"
  },
  {
    "idlocation": 26991,
    "id": 4873,
    "name": "Chez les parents",
    "location": "27;Avenue Emile Boissier",
    "codepostal": "44000",
    "city": "Nantes",
    "department": "Loire-Atlantique",
    "country": "France",
    "latitude": 47.2169837628151,
    "longitude": -1.5722105488876414,
    "isDefault": 0,
    "isALive": 1,
    "dateLastUpdate": "2023-01-06 13:46:30"
  },
  {
    "idlocation": 11873,
    "id": 4873,
    "name": "Chez les parents",
    "location": "1;Rue Jean Marie Potiron",
    "codepostal": "44300",
    "city": "Nantes",
    "department": "Loire-Atlantique",
    "country": "France",
    "latitude": 47.270274140194374,
    "longitude": -1.518860148885846,
    "isDefault": 0,
    "isALive": 1,
    "dateLastUpdate": "2023-01-06 13:46:30"
  },
  {
    "idlocation": 67470,
    "id": 2654,
    "name": "Chez mon frère",
    "location": "12;Passage Nina Verde",
    "codepostal": "44300",
    "city": "Nantes",
    "department": "Loire-Atlantique",
    "country": "France",
    "latitude": 47.26177703181648,
    "longitude": -1.517640076079638,
    "isDefault": 0,
    "isALive": 1,
    "dateLastUpdate": "2023-01-06 13:46:30"
  },
  {
    "idlocation": 9674,
    "id": 2654,
    "name": "Chez Moi",
    "location": "13;Bis Rue Claire Fontaine",
    "codepostal": "44830",
    "city": "Brains",
    "department": "Loire-Atlantique",
    "country": "France",
    "latitude": 47.17086696728941,
    "longitude": -1.7366730453171808,
    "isDefault": 0,
    "isALive": 1,
    "dateLastUpdate": "2023-01-06 13:46:30"
  },
  {
    "idlocation": 64797,
    "id": 2654,
    "name": "Chez les parents",
    "location": "10;Boulevard Emile Gabory",
    "codepostal": "44200",
    "city": "Nantes",
    "department": "Loire-Atlantique",
    "country": "France",
    "latitude": 47.19682098988132,
    "longitude": -1.5314573980910013,
    "isDefault": 0,
    "isALive": 1,
    "dateLastUpdate": "2023-01-06 13:46:30"
  },